{"0": {"thanks": "Thanks from all of us at index.home.raft for using a what3words API", "blends": [{"country": "us", "words": "coffee.coffee.also", "rank": 1, "language": "en", "geometry": {"lng": -76.822202, "lat": 39.287557}, "place": "Ellicott City, Maryland"}, {"country": "us", "words": "coffee.coffee.back", "rank": 2, "language": "en", "geometry": {"lng": -118.336347, "lat": 34.132614}, "place": "Universal City, California"}, {"country": "us", "words": "coffee.coffee.each", "rank": 3, "language": "en", "geometry": {"lng": -71.306893, "lat": 42.604773}, "place": "Lowell, Massachusetts"}], "status": {"reason": "OK", "status": 200}}, "1": {"thanks": "Thanks from all of us at index.home.raft for using a what3words API", "blends": [{"country": "us", "words": "coffee.coffee.back", "rank": 1, "language": "en", "geometry": {"lng": -118.336347, "lat": 34.132614}, "place": "Universal City, California"}, {"country": "us", "words": "coffee.coffee.both", "rank": 2, "language": "en", "geometry": {"lng": -108.428695, "lat": 42.980312}, "place": "Arapahoe, Wyoming"}, {"country": "us", "words": "coffee.coffee.best", "rank": 3, "language": "en", "geometry": {"lng": -122.24962, "lat": 47.655334}, "place": "Yarrow Point, Washington"}], "status": {"reason": "OK", "status": 200}}, "2": {"thanks": "Thanks from all of us at index.home.raft for using a what3words API", "blends": [{"country": "us", "words": "coffee.coffee.back", "rank": 1, "language": "en", "geometry": {"lng": -118.336347, "lat": 34.132614}, "place": "Universal City, California"}, {"country": "gb", "words": "coffee.coffee.much", "rank": 2, "language": "en", "geometry": {"lng": 0.335406, "lat": 52.754245}, "place": "Clenchwarton, Norfolk"}, {"country": "us", "words": "coffee.coffee.each", "rank": 3, "language": "en", "geometry": {"lng": -71.306893, "lat": 42.604773}, "place": "Lowell, Massachusetts"}], "status": {"reason": "OK", "status": 200}}, "3": {"thanks": "Thanks from all of us at index.home.raft for using a what3words API", "blends": [{"country": "us", "words": "coffee.coffee.deep", "rank": 1, "language": "en", "geometry": {"lng": -87.524672, "lat": 41.561489}, "place": "Munster, Indiana"}, {"country": "us", "words": "coffee.coffee.good", "rank": 2, "language": "en", "geometry": {"lng": -104.76739, "lat": 39.516993}, "place": "Parker, Colorado"}, {"country": "us", "words": "coffee.coffee.down", "rank": 3, "language": "en", "geometry": {"lng": -88.326067, "lat": 42.229234}, "place": "Crystal Lake, Illinois"}], "status": {"reason": "OK", "status": 200}}, "4": {"thanks": "Thanks from all of us at index.home.raft for using a what3words API", "blends": [{"country": "us", "words": "coffee.coffee.deep", "rank": 1, "language": "en", "geometry": {"lng": -87.524672, "lat": 41.561489}, "place": "Munster, Indiana"}, {"country": "us", "words": "coffee.coffee.even", "rank": 2, "language": "en", "geometry": {"lng": -108.726633, "lat": 35.513085}, "place": "Gallup, New Mexico"}, {"country": "us", "words": "coffee.coffee.each", "rank": 3, "language": "en", "geometry": {"lng": -71.306893, "lat": 42.604773}, "place": "Lowell, Massachusetts"}], "status": {"reason": "OK", "status": 200}}, "5": {"thanks": "Thanks from all of us at index.home.raft for using a what3words API", "blends": [{"country": "us", "words": "coffee.coffee.from", "rank": 1, "language": "en", "geometry": {"lng": -81.372563, "lat": 41.707592}, "place": "Mentor-on-the-Lake, Ohio"}, {"country": "us", "words": "coffee.coffee.life", "rank": 2, "language": "en", "geometry": {"lng": -71.059558, "lat": 42.417004}, "place": "Malden, Massachusetts"}, {"country": "gb", "words": "coffee.coffee.fact", "rank": 3, "language": "en", "geometry": {"lng": -1.23194, "lat": 54.650887}, "place": "Greatham, Hartlepool"}], "status": {"reason": "OK", "status": 200}}, "6": {"thanks": "Thanks from all of us at index.home.raft for using a what3words API", "blends": [{"country": "us", "words": "coffee.coffee.good", "rank": 1, "language": "en", "geometry": {"lng": -104.76739, "lat": 39.516993}, "place": "Parker, Colorado"}, {"country": "us", "words": "coffee.coffee.give", "rank": 2, "language": "en", "geometry": {"lng": -75.633174, "lat": 40.226404}, "place": "Kenilworth, Pennsylvania"}, {"country": "us", "words": "coffee.coffee.long", "rank": 3, "language": "en", "geometry": {"lng": -120.74089, "lat": 37.389702}, "place": "Livingston, California"}], "status": {"reason": "OK", "status": 200}}, "7": {"thanks": "Thanks from all of us at index.home.raft for using a what3words API", "blends": [{"country": "zz", "words": "coffee.coffee.than", "rank": 1, "language": "en", "geometry": {"lng": -3.020272, "lat": 51.357603}, "place": "Weston-super-Mare, Somerset"}, {"country": "gb", "words": "coffee.coffee.much", "rank": 2, "language": "en", "geometry": {"lng": 0.335406, "lat": 52.754245}, "place": "Clenchwarton, Norfolk"}, {"country": "us", "words": "coffee.coffee.such", "rank": 3, "language": "en", "geometry": {"lng": -105.116691, "lat": 39.850865}, "place": "Arvada, Colorado"}], "status": {"reason": "OK", "status": 200}}, "8": {"thanks": "Thanks from all of us at index.home.raft for using a what3words API", "blends": [{"country": "us", "words": "coffee.coffee.into", "rank": 1, "language": "en", "geometry": {"lng": -90.230434, "lat": 41.853695}, "place": "Clinton, Iowa"}, {"country": "us", "words": "coffee.coffee.like", "rank": 2, "language": "en", "geometry": {"lng": -112.117117, "lat": 33.611511}, "place": "Glendale, Arizona"}, {"country": "us", "words": "coffee.coffee.life", "rank": 3, "language": "en", "geometry": {"lng": -71.059558, "lat": 42.417004}, "place": "Malden, Massachusetts"}], "status": {"reason": "OK", "status": 200}}, "9": {"thanks": "Thanks from all of us at index.home.raft for using a what3words API", "blends": [{"country": "us", "words": "coffee.coffee.just", "rank": 1, "language": "en", "geometry": {"lng": -117.187147, "lat": 32.757075}, "place": "San Diego, California"}, {"country": "us", "words": "coffee.coffee.jobs", "rank": 2, "language": "en", "geometry": {"lng": -74.974284, "lat": 40.09189}, "place": "Eddington, Pennsylvania"}, {"country": "gb", "words": "coffee.coffee.join", "rank": 3, "language": "en", "geometry": {"lng": -3.128408, "lat": 51.003975}, "place": "Taunton, Somerset"}], "status": {"reason": "OK", "status": 200}}, "10": {"thanks": "Thanks from all of us at index.home.raft for using a what3words API", "blends": [{"country": "us", "words": "coffee.coffee.like", "rank": 1, "language": "en", "geometry": {"lng": -112.117117, "lat": 33.611511}, "place": "Glendale, Arizona"}, {"country": "us", "words": "coffee.coffee.back", "rank": 2, "language": "en", "geometry": {"lng": -118.336347, "lat": 34.132614}, "place": "Universal City, California"}, {"country": "us", "words": "coffee.coffee.take", "rank": 3, "language": "en", "geometry": {"lng": -86.06143, "lat": 39.746429}, "place": "Beech Grove, Indiana"}], "status": {"reason": "OK", "status": 200}}, "11": {"thanks": "Thanks from all of us at index.home.raft for using a what3words API", "blends": [{"country": "us", "words": "coffee.coffee.also", "rank": 1, "language": "en", "geometry": {"lng": -76.822202, "lat": 39.287557}, "place": "Ellicott City, Maryland"}, {"country": "us", "words": "coffee.coffee.last", "rank": 2, "language": "en", "geometry": {"lng": -79.994892, "lat": 35.909188}, "place": "Trinity, North Carolina"}, {"country": "us", "words": "coffee.coffee.help", "rank": 3, "language": "en", "geometry": {"lng": -70.845404, "lat": 43.168082}, "place": "Dover, New Hampshire"}], "status": {"reason": "OK", "status": 200}}, "12": {"thanks": "Thanks from all of us at index.home.raft for using a what3words API", "blends": [{"country": "us", "words": "coffee.coffee.from", "rank": 1, "language": "en", "geometry": {"lng": -81.372563, "lat": 41.707592}, "place": "Mentor-on-the-Lake, Ohio"}, {"country": "us", "words": "coffee.coffee.many", "rank": 2, "language": "en", "geometry": {"lng": -72.480438, "lat": 42.124798}, "place": "Ludlow, Massachusetts"}, {"country": "gb", "words": "coffee.coffee.much", "rank": 3, "language": "en", "geometry": {"lng": 0.335406, "lat": 52.754245}, "place": "Clenchwarton, Norfolk"}], "status": {"reason": "OK", "status": 200}}, "13": {"thanks": "Thanks from all of us at index.home.raft for using a what3words API", "blends": [{"country": "us", "words": "coffee.coffee.into", "rank": 1, "language": "en", "geometry": {"lng": -90.230434, "lat": 41.853695}, "place": "Clinton, Iowa"}, {"country": "us", "words": "coffee.coffee.many", "rank": 2, "language": "en", "geometry": {"lng": -72.480438, "lat": 42.124798}, "place": "Ludlow, Massachusetts"}, {"country": "us", "words": "coffee.coffee.even", "rank": 3, "language": "en", "geometry": {"lng": -108.726633, "lat": 35.513085}, "place": "Gallup, New Mexico"}], "status": {"reason": "OK", "status": 200}}, "14": {"thanks": "Thanks from all of us at index.home.raft for using a what3words API", "blends": [{"country": "us", "words": "coffee.coffee.from", "rank": 1, "language": "en", "geometry": {"lng": -81.372563, "lat": 41.707592}, "place": "Mentor-on-the-Lake, Ohio"}, {"country": "us", "words": "coffee.coffee.also", "rank": 2, "language": "en", "geometry": {"lng": -76.822202, "lat": 39.287557}, "place": "Ellicott City, Maryland"}, {"country": "us", "words": "coffee.coffee.good", "rank": 3, "language": "en", "geometry": {"lng": -104.76739, "lat": 39.516993}, "place": "Parker, Colorado"}], "status": {"reason": "OK", "status": 200}}, "15": {"thanks": "Thanks from all of us at index.home.raft for using a what3words API", "blends": [{"country": "us", "words": "coffee.coffee.deep", "rank": 1, "language": "en", "geometry": {"lng": -87.524672, "lat": 41.561489}, "place": "Munster, Indiana"}, {"country": "us", "words": "coffee.coffee.part", "rank": 2, "language": "en", "geometry": {"lng": -70.900775, "lat": 42.792543}, "place": "Newburyport, Massachusetts"}, {"country": "us", "words": "coffee.coffee.help", "rank": 3, "language": "en", "geometry": {"lng": -70.845404, "lat": 43.168082}, "place": "Dover, New Hampshire"}], "status": {"reason": "OK", "status": 200}}, "16": {"thanks": "Thanks from all of us at index.home.raft for using a what3words API", "blends": [{"country": "us", "words": "coffee.coffee.quit", "rank": 1, "language": "en", "geometry": {"lng": -87.860703, "lat": 42.397518}, "place": "Beach Park, Illinois"}, {"country": "us", "words": "coffee.coffee.quiz", "rank": 2, "language": "en", "geometry": {"lng": -87.937736, "lat": 42.002089}, "place": "Elk Grove Village, Illinois"}, {"country": "au", "words": "coffee.coffee.quad", "rank": 3, "language": "en", "geometry": {"lng": 135.005601, "lat": -20.592618}, "place": "Tennant Creek, Northern Territory"}], "status": {"reason": "OK", "status": 200}}, "17": {"thanks": "Thanks from all of us at index.home.raft for using a what3words API", "blends": [{"country": "us", "words": "coffee.coffee.from", "rank": 1, "language": "en", "geometry": {"lng": -81.372563, "lat": 41.707592}, "place": "Mentor-on-the-Lake, Ohio"}, {"country": "us", "words": "coffee.coffee.over", "rank": 2, "language": "en", "geometry": {"lng": -77.025371, "lat": 38.903717}, "place": "Washington D.C., Washington, D.C."}, {"country": "us", "words": "coffee.coffee.part", "rank": 3, "language": "en", "geometry": {"lng": -70.900775, "lat": 42.792543}, "place": "Newburyport, Massachusetts"}], "status": {"reason": "OK", "status": 200}}, "18": {"thanks": "Thanks from all of us at index.home.raft for using a what3words API", "blends": [{"country": "us", "words": "coffee.coffee.also", "rank": 1, "language": "en", "geometry": {"lng": -76.822202, "lat": 39.287557}, "place": "Ellicott City, Maryland"}, {"country": "us", "words": "coffee.coffee.case", "rank": 2, "language": "en", "geometry": {"lng": -73.818235, "lat": 41.029795}, "place": "Greenburgh, New York"}, {"country": "us", "words": "coffee.coffee.best", "rank": 3, "language": "en", "geometry": {"lng": -122.24962, "lat": 47.655334}, "place": "Yarrow Point, Washington"}], "status": {"reason": "OK", "status": 200}}, "19": {"thanks": "Thanks from all of us at index.home.raft for using a what3words API", "blends": [{"country": "us", "words": "coffee.coffee.just", "rank": 1, "language": "en", "geometry": {"lng": -117.187147, "lat": 32.757075}, "place": "San Diego, California"}, {"country": "us", "words": "coffee.coffee.into", "rank": 2, "language": "en", "geometry": {"lng": -90.230434, "lat": 41.853695}, "place": "Clinton, Iowa"}, {"country": "us", "words": "coffee.coffee.last", "rank": 3, "language": "en", "geometry": {"lng": -79.994892, "lat": 35.909188}, "place": "Trinity, North Carolina"}], "status": {"reason": "OK", "status": 200}}, "20": {"thanks": "Thanks from all of us at index.home.raft for using a what3words API", "blends": [{"country": "us", "words": "coffee.coffee.just", "rank": 1, "language": "en", "geometry": {"lng": -117.187147, "lat": 32.757075}, "place": "San Diego, California"}, {"country": "gb", "words": "coffee.coffee.much", "rank": 2, "language": "en", "geometry": {"lng": 0.335406, "lat": 52.754245}, "place": "Clenchwarton, Norfolk"}, {"country": "gb", "words": "coffee.coffee.full", "rank": 3, "language": "en", "geometry": {"lng": -3.113182, "lat": 53.364745}, "place": "Prenton, Wirral"}], "status": {"reason": "OK", "status": 200}}, "21": {"thanks": "Thanks from all of us at index.home.raft for using a what3words API", "blends": [{"country": "us", "words": "coffee.coffee.even", "rank": 1, "language": "en", "geometry": {"lng": -108.726633, "lat": 35.513085}, "place": "Gallup, New Mexico"}, {"country": "us", "words": "coffee.coffee.over", "rank": 2, "language": "en", "geometry": {"lng": -77.025371, "lat": 38.903717}, "place": "Washington D.C., Washington, D.C."}, {"country": "us", "words": "coffee.coffee.give", "rank": 3, "language": "en", "geometry": {"lng": -75.633174, "lat": 40.226404}, "place": "Kenilworth, Pennsylvania"}], "status": {"reason": "OK", "status": 200}}, "22": {"thanks": "Thanks from all of us at index.home.raft for using a what3words API", "blends": [{"country": "us", "words": "coffee.coffee.with", "rank": 1, "language": "en", "geometry": {"lng": -95.359014, "lat": 29.819305}, "place": "Houston, Texas"}, {"country": "zz", "words": "coffee.coffee.will", "rank": 2, "language": "en", "geometry": {"lng": -0.367081, "lat": 50.794833}, "place": "Worthing, Sussex"}, {"country": "us", "words": "coffee.coffee.when", "rank": 3, "language": "en", "geometry": {"lng": -106.525794, "lat": 35.095879}, "place": "Carnuel, New Mexico"}], "status": {"reason": "OK", "status": 200}}, "23": {"thanks": "Thanks from all of us at index.home.raft for using a what3words API", "blends": [{"country": "us", "words": "coffee.coffee.next", "rank": 1, "language": "en", "geometry": {"lng": -115.239349, "lat": 36.284727}, "place": "North Las Vegas, Nevada"}, {"country": "us", "words": "coffee.coffee.text", "rank": 2, "language": "en", "geometry": {"lng": -70.998701, "lat": 42.501145}, "place": "Saugus, Massachusetts"}, {"country": "us", "words": "coffee.coffee.exit", "rank": 3, "language": "en", "geometry": {"lng": -122.24095, "lat": 40.206918}, "place": "Red Bluff, California"}], "status": {"reason": "OK", "status": 200}}, "24": {"thanks": "Thanks from all of us at index.home.raft for using a what3words API", "blends": [{"country": "us", "words": "coffee.coffee.they", "rank": 1, "language": "en", "geometry": {"lng": -95.095379, "lat": 38.953684}, "place": "Eudora, Kansas"}, {"country": "us", "words": "coffee.coffee.many", "rank": 2, "language": "en", "geometry": {"lng": -72.480438, "lat": 42.124798}, "place": "Ludlow, Massachusetts"}, {"country": "gb", "words": "coffee.coffee.only", "rank": 3, "language": "en", "geometry": {"lng": -3.979058, "lat": 51.670372}, "place": "Pontlliw, Swansea"}], "status": {"reason": "OK", "status": 200}}, "25": {"thanks": "Thanks from all of us at index.home.raft for using a what3words API", "blends": [{"country": "au", "words": "coffee.coffee.zone", "rank": 1, "language": "en", "geometry": {"lng": 115.92756, "lat": -32.076124}, "place": "Canning Vale, Western Australia"}, {"country": "us", "words": "coffee.coffee.jazz", "rank": 2, "language": "en", "geometry": {"lng": -73.997349, "lat": 40.738802}, "place": "New York"}, {"country": "us", "words": "coffee.coffee.lazy", "rank": 3, "language": "en", "geometry": {"lng": -122.909487, "lat": 38.496698}, "place": "Forestville, California"}], "status": {"reason": "OK", "status": 200}}, "26": {"thanks": "Thanks from all of us at index.home.raft for using a what3words API", "blends": [{"country": "us", "words": "coffee.hope.also", "rank": 1, "language": "en", "geometry": {"lng": -101.496116, "lat": 36.701097}, "place": "Guymon, Oklahoma"}, {"country": "us", "words": "coffee.shop.also", "rank": 2, "language": "en", "geometry": {"lng": -113.660224, "lat": 37.127035}, "place": "Santa Clara, Utah"}, {"country": "gb", "words": "coffee.hope.back", "rank": 3, "language": "en", "geometry": {"lng": -1.427572, "lat": 54.546154}, "place": "Elton, Stockton-on-Tees"}], "status": {"reason": "OK", "status": 200}}, "27": {"thanks": "Thanks from all of us at index.home.raft for using a what3words API", "blends": [{"country": "gb", "words": "coffee.hope.back", "rank": 1, "language": "en", "geometry": {"lng": -1.427572, "lat": 54.546154}, "place": "Elton, Stockton-on-Tees"}, {"country": "zz", "words": "coffee.shop.back", "rank": 2, "language": "en", "geometry": {"lng": -76.841109, "lat": 17.888759}, "place": "Port Royal, Kingston"}, {"country": "us", "words": "coffee.hope.both", "rank": 3, "language": "en", "geometry": {"lng": -104.803426, "lat": 41.102186}, "place": "South Greeley, Wyoming"}], "status": {"reason": "OK", "status": 200}}, "28": {"thanks": "Thanks from all of us at index.home.raft for using a what3words API", "blends": [{"country": "gb", "words": "coffee.hope.back", "rank": 1, "language": "en", "geometry": {"lng": -1.427572, "lat": 54.546154}, "place": "Elton, Stockton-on-Tees"}, {"country": "zz", "words": "coffee.shop.back", "rank": 2, "language": "en", "geometry": {"lng": -76.841109, "lat": 17.888759}, "place": "Port Royal, Kingston"}, {"country": "us", "words": "coffee.hope.much", "rank": 3, "language": "en", "geometry": {"lng": -116.251953, "lat": 43.542785}, "place": "Boise, Idaho"}], "status": {"reason": "OK", "status": 200}}, "29": {"thanks": "Thanks from all of us at index.home.raft for using a what3words API", "blends": [{"country": "us", "words": "coffee.hope.deep", "rank": 1, "language": "en", "geometry": {"lng": -86.172431, "lat": 39.683363}, "place": "Southport, Indiana"}, {"country": "us", "words": "coffee.shop.deep", "rank": 2, "language": "en", "geometry": {"lng": -86.09122, "lat": 39.900968}, "place": "Broad Ripple, Indiana"}, {"country": "zz", "words": "coffee.hope.good", "rank": 3, "language": "en", "geometry": {"lng": -121.950489, "lat": 36.9722}, "place": "Capitola, California"}], "status": {"reason": "OK", "status": 200}}, "30": {"thanks": "Thanks from all of us at index.home.raft for using a what3words API", "blends": [{"country": "us", "words": "coffee.hope.deep", "rank": 1, "language": "en", "geometry": {"lng": -86.172431, "lat": 39.683363}, "place": "Southport, Indiana"}, {"country": "us", "words": "coffee.shop.deep", "rank": 2, "language": "en", "geometry": {"lng": -86.09122, "lat": 39.900968}, "place": "Broad Ripple, Indiana"}, {"country": "us", "words": "coffee.hope.even", "rank": 3, "language": "en", "geometry": {"lng": -74.285365, "lat": 40.925062}, "place": "Wayne, New Jersey"}], "status": {"reason": "OK", "status": 200}}, "31": {"thanks": "Thanks from all of us at index.home.raft for using a what3words API", "blends": [{"country": "us", "words": "coffee.hope.from", "rank": 1, "language": "en", "geometry": {"lng": -76.558934, "lat": 39.871132}, "place": "Red Lion, Pennsylvania"}, {"country": "us", "words": "coffee.shop.from", "rank": 2, "language": "en", "geometry": {"lng": -83.033372, "lat": 40.04707}, "place": "Worthington, Ohio"}, {"country": "us", "words": "coffee.hope.life", "rank": 3, "language": "en", "geometry": {"lng": -111.841975, "lat": 40.580544}, "place": "Sandy Hills, Utah"}], "status": {"reason": "OK", "status": 200}}, "32": {"thanks": "Thanks from all of us at index.home.raft for using a what3words API", "blends": [{"country": "zz", "words": "coffee.hope.good", "rank": 1, "language": "en", "geometry": {"lng": -121.950489, "lat": 36.9722}, "place": "Capitola, California"}, {"country": "us", "words": "coffee.shop.good", "rank": 2, "language": "en", "geometry": {"lng": -77.477009, "lat": 37.481471}, "place": "Bensley, Virginia"}, {"country": "us", "words": "coffee.hope.give", "rank": 3, "language": "en", "geometry": {"lng": -122.160487, "lat": 38.056611}, "place": "Benicia, California"}], "status": {"reason": "OK", "status": 200}}, "33": {"thanks": "Thanks from all of us at index.home.raft for using a what3words API", "blends": [{"country": "us", "words": "coffee.hope.than", "rank": 1, "language": "en", "geometry": {"lng": -84.546788, "lat": 42.729477}, "place": "Lansing, Michigan"}, {"country": "us", "words": "coffee.shop.than", "rank": 2, "language": "en", "geometry": {"lng": -89.405697, "lat": 43.030415}, "place": "Madison, Wisconsin"}, {"country": "us", "words": "coffee.hope.much", "rank": 3, "language": "en", "geometry": {"lng": -116.251953, "lat": 43.542785}, "place": "Boise, Idaho"}], "status": {"reason": "OK", "status": 200}}, "34": {"thanks": "Thanks from all of us at index.home.raft for using a what3words API", "blends": [{"country": "us", "words": "coffee.hope.into", "rank": 1, "language": "en", "geometry": {"lng": -86.03813, "lat": 39.975569}, "place": "Fishers, Indiana"}, {"country": "us", "words": "coffee.shop.into", "rank": 2, "language": "en", "geometry": {"lng": -75.404174, "lat": 40.276507}, "place": "Harleysville, Pennsylvania"}, {"country": "gb", "words": "coffee.hope.like", "rank": 3, "language": "en", "geometry": {"lng": -0.396699, "lat": 53.691718}, "place": "Barrow upon Humber, Lincs."}], "status": {"reason": "OK", "status": 200}}, "35": {"thanks": "Thanks from all of us at index.home.raft for using a what3words API", "blends": [{"country": "gb", "words": "coffee.hope.just", "rank": 1, "language": "en", "geometry": {"lng": -2.141644, "lat": 53.212282}, "place": "Eaton, Cheshire"}, {"country": "gb", "words": "coffee.shop.just", "rank": 2, "language": "en", "geometry": {"lng": -2.496326, "lat": 53.76322}, "place": "Blackburn"}, {"country": "ie", "words": "coffee.hope.jobs", "rank": 3, "language": "en", "geometry": {"lng": -8.488885, "lat": 51.838764}, "place": "Cork, Munster"}], "status": {"reason": "OK", "status": 200}}, "36": {"thanks": "Thanks from all of us at index.home.raft for using a what3words API", "blends": [{"country": "gb", "words": "coffee.hope.like", "rank": 1, "language": "en", "geometry": {"lng": -0.396699, "lat": 53.691718}, "place": "Barrow upon Humber, Lincs."}, {"country": "gb", "words": "coffee.shop.like", "rank": 2, "language": "en", "geometry": {"lng": -1.791971, "lat": 54.867656}, "place": "Consett, County Durham"}, {"country": "gb", "words": "coffee.hope.back", "rank": 3, "language": "en", "geometry": {"lng": -1.427572, "lat": 54.546154}, "place": "Elton, Stockton-on-Tees"}], "status": {"reason": "OK", "status": 200}}, "37": {"thanks": "Thanks from all of us at index.home.raft for using a what3words API", "blends": [{"country": "us", "words": "coffee.hope.also", "rank": 1, "language": "en", "geometry": {"lng": -101.496116, "lat": 36.701097}, "place": "Guymon, Oklahoma"}, {"country": "us", "words": "coffee.shop.also", "rank": 2, "language": "en", "geometry": {"lng": -113.660224, "lat": 37.127035}, "place": "Santa Clara, Utah"}, {"country": "us", "words": "coffee.hope.last", "rank": 3, "language": "en", "geometry": {"lng": -87.659119, "lat": 41.862832}, "place": "Chicago, Illinois"}], "status": {"reason": "OK", "status": 200}}, "38": {"thanks": "Thanks from all of us at index.home.raft for using a what3words API", "blends": [{"country": "us", "words": "coffee.hope.from", "rank": 1, "language": "en", "geometry": {"lng": -76.558934, "lat": 39.871132}, "place": "Red Lion, Pennsylvania"}, {"country": "us", "words": "coffee.shop.from", "rank": 2, "language": "en", "geometry": {"lng": -83.033372, "lat": 40.04707}, "place": "Worthington, Ohio"}, {"country": "us", "words": "coffee.hope.many", "rank": 3, "language": "en", "geometry": {"lng": -75.112422, "lat": 40.205005}, "place": "Warminster Heights, Pennsylvania"}], "status": {"reason": "OK", "status": 200}}, "39": {"thanks": "Thanks from all of us at index.home.raft for using a what3words API", "blends": [{"country": "us", "words": "coffee.hope.into", "rank": 1, "language": "en", "geometry": {"lng": -86.03813, "lat": 39.975569}, "place": "Fishers, Indiana"}, {"country": "us", "words": "coffee.shop.into", "rank": 2, "language": "en", "geometry": {"lng": -75.404174, "lat": 40.276507}, "place": "Harleysville, Pennsylvania"}, {"country": "us", "words": "coffee.hope.many", "rank": 3, "language": "en", "geometry": {"lng": -75.112422, "lat": 40.205005}, "place": "Warminster Heights, Pennsylvania"}], "status": {"reason": "OK", "status": 200}}, "40": {"thanks": "Thanks from all of us at index.home.raft for using a what3words API", "blends": [{"country": "us", "words": "coffee.hope.from", "rank": 1, "language": "en", "geometry": {"lng": -76.558934, "lat": 39.871132}, "place": "Red Lion, Pennsylvania"}, {"country": "us", "words": "coffee.shop.from", "rank": 2, "language": "en", "geometry": {"lng": -83.033372, "lat": 40.04707}, "place": "Worthington, Ohio"}, {"country": "us", "words": "coffee.hope.also", "rank": 3, "language": "en", "geometry": {"lng": -101.496116, "lat": 36.701097}, "place": "Guymon, Oklahoma"}], "status": {"reason": "OK", "status": 200}}, "41": {"thanks": "Thanks from all of us at index.home.raft for using a what3words API", "blends": [{"country": "us", "words": "coffee.hope.deep", "rank": 1, "language": "en", "geometry": {"lng": -86.172431, "lat": 39.683363}, "place": "Southport, Indiana"}, {"country": "us", "words": "coffee.shop.deep", "rank": 2, "language": "en", "geometry": {"lng": -86.09122, "lat": 39.900968}, "place": "Broad Ripple, Indiana"}, {"country": "us", "words": "coffee.hope.part", "rank": 3, "language": "en", "geometry": {"lng": -111.91351, "lat": 40.914416}, "place": "West Bountiful, Utah"}], "status": {"reason": "OK", "status": 200}}, "42": {"thanks": "Thanks from all of us at index.home.raft for using a what3words API", "blends": [{"country": "us", "words": "coffee.hope.quit", "rank": 1, "language": "en", "geometry": {"lng": -85.655824, "lat": 40.561058}, "place": "Marion, Indiana"}, {"country": "us", "words": "coffee.shop.quit", "rank": 2, "language": "en", "geometry": {"lng": -72.992717, "lat": 40.820329}, "place": "Medford, New York"}, {"country": "us", "words": "coffee.hope.quiz", "rank": 3, "language": "en", "geometry": {"lng": -80.00111, "lat": 40.123962}, "place": "Bentleyville, Pennsylvania"}], "status": {"reason": "OK", "status": 200}}, "43": {"thanks": "Thanks from all of us at index.home.raft for using a what3words API", "blends": [{"country": "us", "words": "coffee.hope.from", "rank": 1, "language": "en", "geometry": {"lng": -76.558934, "lat": 39.871132}, "place": "Red Lion, Pennsylvania"}, {"country": "us", "words": "coffee.shop.from", "rank": 2, "language": "en", "geometry": {"lng": -83.033372, "lat": 40.04707}, "place": "Worthington, Ohio"}, {"country": "gb", "words": "coffee.hope.over", "rank": 3, "language": "en", "geometry": {"lng": -3.946749, "lat": 55.942257}, "place": "Cumbernauld, North Lanarkshire"}], "status": {"reason": "OK", "status": 200}}, "44": {"thanks": "Thanks from all of us at index.home.raft for using a what3words API", "blends": [{"country": "us", "words": "coffee.hope.also", "rank": 1, "language": "en", "geometry": {"lng": -101.496116, "lat": 36.701097}, "place": "Guymon, Oklahoma"}, {"country": "us", "words": "coffee.shop.also", "rank": 2, "language": "en", "geometry": {"lng": -113.660224, "lat": 37.127035}, "place": "Santa Clara, Utah"}, {"country": "au", "words": "coffee.hope.case", "rank": 3, "language": "en", "geometry": {"lng": 151.056135, "lat": -33.848332}, "place": "Lidcombe, New South Wales"}], "status": {"reason": "OK", "status": 200}}, "45": {"thanks": "Thanks from all of us at index.home.raft for using a what3words API", "blends": [{"country": "gb", "words": "coffee.hope.just", "rank": 1, "language": "en", "geometry": {"lng": -2.141644, "lat": 53.212282}, "place": "Eaton, Cheshire"}, {"country": "gb", "words": "coffee.shop.just", "rank": 2, "language": "en", "geometry": {"lng": -2.496326, "lat": 53.76322}, "place": "Blackburn"}, {"country": "us", "words": "coffee.hope.into", "rank": 3, "language": "en", "geometry": {"lng": -86.03813, "lat": 39.975569}, "place": "Fishers, Indiana"}], "status": {"reason": "OK", "status": 200}}, "46": {"thanks": "Thanks from all of us at index.home.raft for using a what3words API", "blends": [{"country": "gb", "words": "coffee.hope.just", "rank": 1, "language": "en", "geometry": {"lng": -2.141644, "lat": 53.212282}, "place": "Eaton, Cheshire"}, {"country": "gb", "words": "coffee.shop.just", "rank": 2, "language": "en", "geometry": {"lng": -2.496326, "lat": 53.76322}, "place": "Blackburn"}, {"country": "us", "words": "coffee.hope.much", "rank": 3, "language": "en", "geometry": {"lng": -116.251953, "lat": 43.542785}, "place": "Boise, Idaho"}], "status": {"reason": "OK", "status": 200}}, "47": {"thanks": "Thanks from all of us at index.home.raft for using a what3words API", "blends": [{"country": "us", "words": "coffee.hope.even", "rank": 1, "language": "en", "geometry": {"lng": -74.285365, "lat": 40.925062}, "place": "Wayne, New Jersey"}, {"country": "us", "words": "coffee.shop.even", "rank": 2, "language": "en", "geometry": {"lng": -87.793719, "lat": 42.059333}, "place": "Glenview, Illinois"}, {"country": "gb", "words": "coffee.hope.over", "rank": 3, "language": "en", "geometry": {"lng": -3.946749, "lat": 55.942257}, "place": "Cumbernauld, North Lanarkshire"}], "status": {"reason": "OK", "status": 200}}, "48": {"thanks": "Thanks from all of us at index.home.raft for using a what3words API", "blends": [{"country": "gb", "words": "coffee.hope.with", "rank": 1, "language": "en", "geometry": {"lng": -1.669932, "lat": 52.649512}, "place": "Tamworth, Staffs."}, {"country": "gb", "words": "coffee.shop.with", "rank": 2, "language": "en", "geometry": {"lng": -2.343999, "lat": 53.45045}, "place": "Urmston, Trafford"}, {"country": "us", "words": "coffee.hope.will", "rank": 3, "language": "en", "geometry": {"lng": -70.914525, "lat": 42.541707}, "place": "Peabody, Massachusetts"}], "status": {"reason": "OK", "status": 200}}, "49": {"thanks": "Thanks from all of us at index.home.raft for using a what3words API", "blends": [{"country": "gb", "words": "coffee.hope.next", "rank": 1, "language": "en", "geometry": {"lng": -0.303032, "lat": 51.321704}, "place": "Ashtead, Surrey"}, {"country": "gb", "words": "coffee.shop.next", "rank": 2, "language": "en", "geometry": {"lng": -0.101955, "lat": 51.580975}, "place": "Harringay, London"}, {"country": "us", "words": "coffee.hope.text", "rank": 3, "language": "en", "geometry": {"lng": -111.88706, "lat": 40.664686}, "place": "Murray, Utah"}], "status": {"reason": "OK", "status": 200}}, "50": {"thanks": "Thanks from all of us at index.home.raft for using a what3words API", "blends": [{"country": "us", "words": "coffee.hope.they", "rank": 1, "language": "en", "geometry": {"lng": -95.898102, "lat": 36.075558}, "place": "Jenks, Oklahoma"}, {"country": "us", "words": "coffee.shop.they", "rank": 2, "language": "en", "geometry": {"lng": -88.838203, "lat": 36.334829}, "place": "Martin, Tennessee"}, {"country": "us", "words": "coffee.hope.many", "rank": 3, "language": "en", "geometry": {"lng": -75.112422, "lat": 40.205005}, "place": "Warminster Heights, Pennsylvania"}], "status": {"reason": "OK", "status": 200}}, "51": {"thanks": "Thanks from all of us at index.home.raft for using a what3words API", "blends": [{"country": "zz", "words": "coffee.hope.zone", "rank": 1, "language": "en", "geometry": {"lng": 0.626236, "lat": 51.504083}, "place": "Canvey Island, Essex"}, {"country": "gb", "words": "coffee.shop.zone", "rank": 2, "language": "en", "geometry": {"lng": 0.05847, "lat": 52.221688}, "place": "Girton, Cambs."}, {"country": "au", "words": "coffee.hope.jazz", "rank": 3, "language": "en", "geometry": {"lng": 144.777761, "lat": -37.639325}, "place": "Sunbury, Victoria"}], "status": {"reason": "OK", "status": 200}}, "52": {"thanks": "Thanks from all of us at index.home.raft for using a what3words API", "blends": [{"country": "au", "words": "coffee.glue.also", "rank": 1, "language": "en", "geometry": {"lng": 145.068789, "lat": -37.937918}, "place": "Oakleigh South, Victoria"}, {"country": "au", "words": "coffee.blur.also", "rank": 2, "language": "en", "geometry": {"lng": 145.089716, "lat": -37.653959}, "place": "Greensborough, Victoria"}, {"country": "us", "words": "coffee.glue.back", "rank": 3, "language": "en", "geometry": {"lng": -74.811324, "lat": 40.867036}, "place": "Hackettstown, New Jersey"}], "status": {"reason": "OK", "status": 200}}, "53": {"thanks": "Thanks from all of us at index.home.raft for using a what3words API", "blends": [{"country": "us", "words": "coffee.glue.back", "rank": 1, "language": "en", "geometry": {"lng": -74.811324, "lat": 40.867036}, "place": "Hackettstown, New Jersey"}, {"country": "us", "words": "coffee.blur.back", "rank": 2, "language": "en", "geometry": {"lng": -81.442865, "lat": 41.067661}, "place": "Sawyerwood, Ohio"}, {"country": "zz", "words": "coffee.glue.both", "rank": 3, "language": "en", "geometry": {"lng": 104.060208, "lat": 1.379838}, "place": "Kampung Pasir Gudang Baru, Johor"}], "status": {"reason": "OK", "status": 200}}, "54": {"thanks": "Thanks from all of us at index.home.raft for using a what3words API", "blends": [{"country": "us", "words": "coffee.glue.back", "rank": 1, "language": "en", "geometry": {"lng": -74.811324, "lat": 40.867036}, "place": "Hackettstown, New Jersey"}, {"country": "us", "words": "coffee.blur.back", "rank": 2, "language": "en", "geometry": {"lng": -81.442865, "lat": 41.067661}, "place": "Sawyerwood, Ohio"}, {"country": "us", "words": "coffee.glue.much", "rank": 3, "language": "en", "geometry": {"lng": -85.737617, "lat": 38.322}, "place": "Clarksville, Indiana"}], "status": {"reason": "OK", "status": 200}}, "55": {"thanks": "Thanks from all of us at index.home.raft for using a what3words API", "blends": [{"country": "us", "words": "coffee.glue.deep", "rank": 1, "language": "en", "geometry": {"lng": -74.390487, "lat": 40.836015}, "place": "East Hanover, New Jersey"}, {"country": "us", "words": "coffee.blur.deep", "rank": 2, "language": "en", "geometry": {"lng": -87.572086, "lat": 41.703307}, "place": "Whiting, Indiana"}, {"country": "au", "words": "coffee.glue.good", "rank": 3, "language": "en", "geometry": {"lng": 144.848975, "lat": -37.625148}, "place": "Broadmeadows, Victoria"}], "status": {"reason": "OK", "status": 200}}, "56": {"thanks": "Thanks from all of us at index.home.raft for using a what3words API", "blends": [{"country": "us", "words": "coffee.glue.deep", "rank": 1, "language": "en", "geometry": {"lng": -74.390487, "lat": 40.836015}, "place": "East Hanover, New Jersey"}, {"country": "us", "words": "coffee.blur.deep", "rank": 2, "language": "en", "geometry": {"lng": -87.572086, "lat": 41.703307}, "place": "Whiting, Indiana"}, {"country": "us", "words": "coffee.glue.even", "rank": 3, "language": "en", "geometry": {"lng": -68.827042, "lat": 44.829277}, "place": "Bangor, Maine"}], "status": {"reason": "OK", "status": 200}}, "57": {"thanks": "Thanks from all of us at index.home.raft for using a what3words API", "blends": [{"country": "us", "words": "coffee.glue.from", "rank": 1, "language": "en", "geometry": {"lng": -87.827394, "lat": 41.690451}, "place": "Palos Hills, Illinois"}, {"country": "ca", "words": "coffee.blur.from", "rank": 2, "language": "en", "geometry": {"lng": -83.067932, "lat": 42.307743}, "place": "Detroit, Michigan"}, {"country": "gb", "words": "coffee.glue.life", "rank": 3, "language": "en", "geometry": {"lng": -0.312522, "lat": 51.608196}, "place": "Stanmore, London"}], "status": {"reason": "OK", "status": 200}}, "58": {"thanks": "Thanks from all of us at index.home.raft for using a what3words API", "blends": [{"country": "au", "words": "coffee.glue.good", "rank": 1, "language": "en", "geometry": {"lng": 144.848975, "lat": -37.625148}, "place": "Broadmeadows, Victoria"}, {"country": "au", "words": "coffee.blur.good", "rank": 2, "language": "en", "geometry": {"lng": 151.082732, "lat": -34.007856}, "place": "Kareela, New South Wales"}, {"country": "us", "words": "coffee.glue.give", "rank": 3, "language": "en", "geometry": {"lng": -95.347527, "lat": 29.667596}, "place": "Brookside Village, Texas"}], "status": {"reason": "OK", "status": 200}}, "59": {"thanks": "Thanks from all of us at index.home.raft for using a what3words API", "blends": [{"country": "us", "words": "coffee.glue.than", "rank": 1, "language": "en", "geometry": {"lng": -77.47267, "lat": 37.550358}, "place": "Richmond, Virginia"}, {"country": "us", "words": "coffee.blur.than", "rank": 2, "language": "en", "geometry": {"lng": -87.944302, "lat": 37.750984}, "place": "Uniontown, Kentucky"}, {"country": "us", "words": "coffee.glue.much", "rank": 3, "language": "en", "geometry": {"lng": -85.737617, "lat": 38.322}, "place": "Clarksville, Indiana"}], "status": {"reason": "OK", "status": 200}}, "60": {"thanks": "Thanks from all of us at index.home.raft for using a what3words API", "blends": [{"country": "us", "words": "coffee.glue.into", "rank": 1, "language": "en", "geometry": {"lng": -71.034096, "lat": 42.336554}, "place": "South Boston, Massachusetts"}, {"country": "gb", "words": "coffee.blur.into", "rank": 2, "language": "en", "geometry": {"lng": -0.071001, "lat": 51.245513}, "place": "Godstone, Surrey"}, {"country": "us", "words": "coffee.glue.like", "rank": 3, "language": "en", "geometry": {"lng": -95.856851, "lat": 40.679266}, "place": "Nebraska City, Nebraska"}], "status": {"reason": "OK", "status": 200}}, "61": {"thanks": "Thanks from all of us at index.home.raft for using a what3words API", "blends": [{"country": "us", "words": "coffee.glue.just", "rank": 1, "language": "en", "geometry": {"lng": -79.956259, "lat": 40.533164}, "place": "Glenshaw, Pennsylvania"}, {"country": "us", "words": "coffee.blur.just", "rank": 2, "language": "en", "geometry": {"lng": -80.563798, "lat": 40.692122}, "place": "Calcutta, Ohio"}, {"country": "us", "words": "coffee.glue.jobs", "rank": 3, "language": "en", "geometry": {"lng": -82.855961, "lat": 41.284646}, "place": "Bellevue, Ohio"}], "status": {"reason": "OK", "status": 200}}, "62": {"thanks": "Thanks from all of us at index.home.raft for using a what3words API", "blends": [{"country": "us", "words": "coffee.glue.like", "rank": 1, "language": "en", "geometry": {"lng": -95.856851, "lat": 40.679266}, "place": "Nebraska City, Nebraska"}, {"country": "us", "words": "coffee.blur.like", "rank": 2, "language": "en", "geometry": {"lng": -73.26759, "lat": 40.838225}, "place": "Commack, New York"}, {"country": "us", "words": "coffee.glue.back", "rank": 3, "language": "en", "geometry": {"lng": -74.811324, "lat": 40.867036}, "place": "Hackettstown, New Jersey"}], "status": {"reason": "OK", "status": 200}}, "63": {"thanks": "Thanks from all of us at index.home.raft for using a what3words API", "blends": [{"country": "au", "words": "coffee.glue.also", "rank": 1, "language": "en", "geometry": {"lng": 145.068789, "lat": -37.937918}, "place": "Oakleigh South, Victoria"}, {"country": "au", "words": "coffee.blur.also", "rank": 2, "language": "en", "geometry": {"lng": 145.089716, "lat": -37.653959}, "place": "Greensborough, Victoria"}, {"country": "us", "words": "coffee.glue.last", "rank": 3, "language": "en", "geometry": {"lng": -93.147878, "lat": 45.142047}, "place": "Circle Pines, Minnesota"}], "status": {"reason": "OK", "status": 200}}, "64": {"thanks": "Thanks from all of us at index.home.raft for using a what3words API", "blends": [{"country": "us", "words": "coffee.glue.from", "rank": 1, "language": "en", "geometry": {"lng": -87.827394, "lat": 41.690451}, "place": "Palos Hills, Illinois"}, {"country": "ca", "words": "coffee.blur.from", "rank": 2, "language": "en", "geometry": {"lng": -83.067932, "lat": 42.307743}, "place": "Detroit, Michigan"}, {"country": "gb", "words": "coffee.glue.many", "rank": 3, "language": "en", "geometry": {"lng": -0.375366, "lat": 51.232657}, "place": "Dorking, Surrey"}], "status": {"reason": "OK", "status": 200}}, "65": {"thanks": "Thanks from all of us at index.home.raft for using a what3words API", "blends": [{"country": "us", "words": "coffee.glue.into", "rank": 1, "language": "en", "geometry": {"lng": -71.034096, "lat": 42.336554}, "place": "South Boston, Massachusetts"}, {"country": "gb", "words": "coffee.blur.into", "rank": 2, "language": "en", "geometry": {"lng": -0.071001, "lat": 51.245513}, "place": "Godstone, Surrey"}, {"country": "gb", "words": "coffee.glue.many", "rank": 3, "language": "en", "geometry": {"lng": -0.375366, "lat": 51.232657}, "place": "Dorking, Surrey"}], "status": {"reason": "OK", "status": 200}}, "66": {"thanks": "Thanks from all of us at index.home.raft for using a what3words API", "blends": [{"country": "us", "words": "coffee.glue.from", "rank": 1, "language": "en", "geometry": {"lng": -87.827394, "lat": 41.690451}, "place": "Palos Hills, Illinois"}, {"country": "ca", "words": "coffee.blur.from", "rank": 2, "language": "en", "geometry": {"lng": -83.067932, "lat": 42.307743}, "place": "Detroit, Michigan"}, {"country": "au", "words": "coffee.glue.also", "rank": 3, "language": "en", "geometry": {"lng": 145.068789, "lat": -37.937918}, "place": "Oakleigh South, Victoria"}], "status": {"reason": "OK", "status": 200}}, "67": {"thanks": "Thanks from all of us at index.home.raft for using a what3words API", "blends": [{"country": "us", "words": "coffee.glue.deep", "rank": 1, "language": "en", "geometry": {"lng": -74.390487, "lat": 40.836015}, "place": "East Hanover, New Jersey"}, {"country": "us", "words": "coffee.blur.deep", "rank": 2, "language": "en", "geometry": {"lng": -87.572086, "lat": 41.703307}, "place": "Whiting, Indiana"}, {"country": "gb", "words": "coffee.glue.part", "rank": 3, "language": "en", "geometry": {"lng": -1.575606, "lat": 53.733735}, "place": "Morley, Leeds"}], "status": {"reason": "OK", "status": 200}}, "68": {"thanks": "Thanks from all of us at index.home.raft for using a what3words API", "blends": [{"country": "gb", "words": "coffee.glue.quit", "rank": 1, "language": "en", "geometry": {"lng": 0.220855, "lat": 51.58871}, "place": "Harold Wood, London"}, {"country": "gb", "words": "coffee.blur.quit", "rank": 2, "language": "en", "geometry": {"lng": -0.075851, "lat": 51.831002}, "place": "Ware, Herts."}, {"country": "us", "words": "coffee.glue.quiz", "rank": 3, "language": "en", "geometry": {"lng": -122.376101, "lat": 47.651614}, "place": "Seattle, Washington"}], "status": {"reason": "OK", "status": 200}}, "69": {"thanks": "Thanks from all of us at index.home.raft for using a what3words API", "blends": [{"country": "us", "words": "coffee.glue.from", "rank": 1, "language": "en", "geometry": {"lng": -87.827394, "lat": 41.690451}, "place": "Palos Hills, Illinois"}, {"country": "ca", "words": "coffee.blur.from", "rank": 2, "language": "en", "geometry": {"lng": -83.067932, "lat": 42.307743}, "place": "Detroit, Michigan"}, {"country": "us", "words": "coffee.glue.over", "rank": 3, "language": "en", "geometry": {"lng": -83.654095, "lat": 41.054805}, "place": "Findlay, Ohio"}], "status": {"reason": "OK", "status": 200}}, "70": {"thanks": "Thanks from all of us at index.home.raft for using a what3words API", "blends": [{"country": "au", "words": "coffee.glue.also", "rank": 1, "language": "en", "geometry": {"lng": 145.068789, "lat": -37.937918}, "place": "Oakleigh South, Victoria"}, {"country": "au", "words": "coffee.blur.also", "rank": 2, "language": "en", "geometry": {"lng": 145.089716, "lat": -37.653959}, "place": "Greensborough, Victoria"}, {"country": "us", "words": "coffee.glue.case", "rank": 3, "language": "en", "geometry": {"lng": -86.267875, "lat": 41.639217}, "place": "Gulivoire Park, Indiana"}], "status": {"reason": "OK", "status": 200}}, "71": {"thanks": "Thanks from all of us at index.home.raft for using a what3words API", "blends": [{"country": "us", "words": "coffee.glue.just", "rank": 1, "language": "en", "geometry": {"lng": -79.956259, "lat": 40.533164}, "place": "Glenshaw, Pennsylvania"}, {"country": "us", "words": "coffee.blur.just", "rank": 2, "language": "en", "geometry": {"lng": -80.563798, "lat": 40.692122}, "place": "Calcutta, Ohio"}, {"country": "us", "words": "coffee.glue.into", "rank": 3, "language": "en", "geometry": {"lng": -71.034096, "lat": 42.336554}, "place": "South Boston, Massachusetts"}], "status": {"reason": "OK", "status": 200}}, "72": {"thanks": "Thanks from all of us at index.home.raft for using a what3words API", "blends": [{"country": "us", "words": "coffee.glue.just", "rank": 1, "language": "en", "geometry": {"lng": -79.956259, "lat": 40.533164}, "place": "Glenshaw, Pennsylvania"}, {"country": "us", "words": "coffee.blur.just", "rank": 2, "language": "en", "geometry": {"lng": -80.563798, "lat": 40.692122}, "place": "Calcutta, Ohio"}, {"country": "us", "words": "coffee.glue.much", "rank": 3, "language": "en", "geometry": {"lng": -85.737617, "lat": 38.322}, "place": "Clarksville, Indiana"}], "status": {"reason": "OK", "status": 200}}, "73": {"thanks": "Thanks from all of us at index.home.raft for using a what3words API", "blends": [{"country": "us", "words": "coffee.glue.even", "rank": 1, "language": "en", "geometry": {"lng": -68.827042, "lat": 44.829277}, "place": "Bangor, Maine"}, {"country": "us", "words": "coffee.blur.even", "rank": 2, "language": "en", "geometry": {"lng": -93.544436, "lat": 45.113236}, "place": "Corcoran, Minnesota"}, {"country": "us", "words": "coffee.glue.over", "rank": 3, "language": "en", "geometry": {"lng": -83.654095, "lat": 41.054805}, "place": "Findlay, Ohio"}], "status": {"reason": "OK", "status": 200}}, "74": {"thanks": "Thanks from all of us at index.home.raft for using a what3words API", "blends": [{"country": "us", "words": "coffee.glue.with", "rank": 1, "language": "en", "geometry": {"lng": -78.943036, "lat": 40.303727}, "place": "Southmont, Pennsylvania"}, {"country": "us", "words": "coffee.blur.with", "rank": 2, "language": "en", "geometry": {"lng": -106.830479, "lat": 40.462686}, "place": "Steamboat Springs, Colorado"}, {"country": "us", "words": "coffee.glue.will", "rank": 3, "language": "en", "geometry": {"lng": -121.943547, "lat": 37.237589}, "place": "Cambrian Park, California"}], "status": {"reason": "OK", "status": 200}}, "75": {"thanks": "Thanks from all of us at index.home.raft for using a what3words API", "blends": [{"country": "us", "words": "coffee.glue.next", "rank": 1, "language": "en", "geometry": {"lng": -119.855755, "lat": 47.225919}, "place": "Quincy, Washington"}, {"country": "us", "words": "coffee.blur.next", "rank": 2, "language": "en", "geometry": {"lng": -92.674803, "lat": 47.843211}, "place": "Mountain Iron, Minnesota"}, {"country": "gb", "words": "coffee.glue.text", "rank": 3, "language": "en", "geometry": {"lng": -0.615845, "lat": 51.692338}, "place": "Chesham, Bucks."}], "status": {"reason": "OK", "status": 200}}, "76": {"thanks": "Thanks from all of us at index.home.raft for using a what3words API", "blends": [{"country": "gb", "words": "coffee.glue.they", "rank": 1, "language": "en", "geometry": {"lng": -7.364783, "lat": 54.97821}, "place": "Londonderry County Borough"}, {"country": "jm", "words": "coffee.blur.they", "rank": 2, "language": "en", "geometry": {"lng": -76.873824, "lat": 18.012168}, "place": "Portmore, Saint Catherine"}, {"country": "gb", "words": "coffee.glue.many", "rank": 3, "language": "en", "geometry": {"lng": -0.375366, "lat": 51.232657}, "place": "Dorking, Surrey"}], "status": {"reason": "OK", "status": 200}}, "77": {"thanks": "Thanks from all of us at index.home.raft for using a what3words API", "blends": [{"country": "us", "words": "coffee.glue.zone", "rank": 1, "language": "en", "geometry": {"lng": -82.951114, "lat": 39.908298}, "place": "Obetz, Ohio"}, {"country": "us", "words": "coffee.blur.zone", "rank": 2, "language": "en", "geometry": {"lng": -74.101666, "lat": 40.067257}, "place": "Point Pleasant, New Jersey"}, {"country": "us", "words": "coffee.glue.jazz", "rank": 3, "language": "en", "geometry": {"lng": -87.54755, "lat": 41.473224}, "place": "Willowbrook, Illinois"}], "status": {"reason": "OK", "status": 200}}, "78": {"thanks": "Thanks from all of us at index.home.raft for using a what3words API", "blends": [{"country": "us", "words": "coffee.brain.also", "rank": 1, "language": "en", "geometry": {"lng": -95.831482, "lat": 36.051571}, "place": "Broken Arrow, Oklahoma"}, {"country": "gb", "words": "coffee.brain.back", "rank": 2, "language": "en", "geometry": {"lng": -2.107995, "lat": 53.229962}, "place": "Macclesfield, Cheshire"}, {"country": "us", "words": "coffee.brain.each", "rank": 3, "language": "en", "geometry": {"lng": -79.881177, "lat": 40.410454}, "place": "Rankin, Pennsylvania"}], "status": {"reason": "OK", "status": 200}}, "79": {"thanks": "Thanks from all of us at index.home.raft for using a what3words API", "blends": [{"country": "gb", "words": "coffee.brain.back", "rank": 1, "language": "en", "geometry": {"lng": -2.107995, "lat": 53.229962}, "place": "Macclesfield, Cheshire"}, {"country": "us", "words": "coffee.brain.both", "rank": 2, "language": "en", "geometry": {"lng": -73.095353, "lat": 40.785993}, "place": "Bohemia, New York"}, {"country": "au", "words": "coffee.brain.best", "rank": 3, "language": "en", "geometry": {"lng": 151.080427, "lat": -33.872318}, "place": "Homebush, New South Wales"}], "status": {"reason": "OK", "status": 200}}, "80": {"thanks": "Thanks from all of us at index.home.raft for using a what3words API", "blends": [{"country": "gb", "words": "coffee.brain.back", "rank": 1, "language": "en", "geometry": {"lng": -2.107995, "lat": 53.229962}, "place": "Macclesfield, Cheshire"}, {"country": "us", "words": "coffee.brain.much", "rank": 2, "language": "en", "geometry": {"lng": -76.127303, "lat": 42.976593}, "place": "Nedrow, New York"}, {"country": "us", "words": "coffee.brain.each", "rank": 3, "language": "en", "geometry": {"lng": -79.881177, "lat": 40.410454}, "place": "Rankin, Pennsylvania"}], "status": {"reason": "OK", "status": 200}}, "81": {"thanks": "Thanks from all of us at index.home.raft for using a what3words API", "blends": [{"country": "us", "words": "coffee.brain.deep", "rank": 1, "language": "en", "geometry": {"lng": -86.581229, "lat": 39.200504}, "place": "Ellettsville, Indiana"}, {"country": "us", "words": "coffee.brain.good", "rank": 2, "language": "en", "geometry": {"lng": -86.831011, "lat": 36.239341}, "place": "Nashville, Tennessee"}, {"country": "us", "words": "coffee.brain.down", "rank": 3, "language": "en", "geometry": {"lng": -86.011842, "lat": 39.993249}, "place": "Fishers, Indiana"}], "status": {"reason": "OK", "status": 200}}, "82": {"thanks": "Thanks from all of us at index.home.raft for using a what3words API", "blends": [{"country": "us", "words": "coffee.brain.deep", "rank": 1, "language": "en", "geometry": {"lng": -86.581229, "lat": 39.200504}, "place": "Ellettsville, Indiana"}, {"country": "zz", "words": "coffee.brain.even", "rank": 2, "language": "en", "geometry": {"lng": -74.061311, "lat": 40.567203}, "place": "Coney Island, New York"}, {"country": "us", "words": "coffee.brain.each", "rank": 3, "language": "en", "geometry": {"lng": -79.881177, "lat": 40.410454}, "place": "Rankin, Pennsylvania"}], "status": {"reason": "OK", "status": 200}}, "83": {"thanks": "Thanks from all of us at index.home.raft for using a what3words API", "blends": [{"country": "us", "words": "coffee.brain.from", "rank": 1, "language": "en", "geometry": {"lng": -77.355738, "lat": 39.471607}, "place": "Walkersville, Maryland"}, {"country": "us", "words": "coffee.brain.life", "rank": 2, "language": "en", "geometry": {"lng": -75.086032, "lat": 40.181018}, "place": "Warminster Heights, Pennsylvania"}, {"country": "us", "words": "coffee.brain.fact", "rank": 3, "language": "en", "geometry": {"lng": -94.45903, "lat": 44.331568}, "place": "New Ulm, Minnesota"}], "status": {"reason": "OK", "status": 200}}, "84": {"thanks": "Thanks from all of us at index.home.raft for using a what3words API", "blends": [{"country": "us", "words": "coffee.brain.good", "rank": 1, "language": "en", "geometry": {"lng": -86.831011, "lat": 36.239341}, "place": "Nashville, Tennessee"}, {"country": "us", "words": "coffee.brain.give", "rank": 2, "language": "en", "geometry": {"lng": -98.10306, "lat": 37.657085}, "place": "Kingman, Kansas"}, {"country": "gb", "words": "coffee.brain.long", "rank": 3, "language": "en", "geometry": {"lng": -0.632731, "lat": 51.485487}, "place": "Eton, Berkshire"}], "status": {"reason": "OK", "status": 200}}, "85": {"thanks": "Thanks from all of us at index.home.raft for using a what3words API", "blends": [{"country": "us", "words": "coffee.brain.than", "rank": 1, "language": "en", "geometry": {"lng": -89.01786, "lat": 42.371618}, "place": "Machesney Park, Illinois"}, {"country": "us", "words": "coffee.brain.much", "rank": 2, "language": "en", "geometry": {"lng": -76.127303, "lat": 42.976593}, "place": "Nedrow, New York"}, {"country": "us", "words": "coffee.brain.such", "rank": 3, "language": "en", "geometry": {"lng": -121.925287, "lat": 36.98988}, "place": "Seacliff, California"}], "status": {"reason": "OK", "status": 200}}, "86": {"thanks": "Thanks from all of us at index.home.raft for using a what3words API", "blends": [{"country": "us", "words": "coffee.brain.into", "rank": 1, "language": "en", "geometry": {"lng": -86.146254, "lat": 39.701043}, "place": "Southport, Indiana"}, {"country": "gb", "words": "coffee.brain.like", "rank": 2, "language": "en", "geometry": {"lng": -1.636705, "lat": 52.625526}, "place": "Tamworth, Staffs."}, {"country": "us", "words": "coffee.brain.life", "rank": 3, "language": "en", "geometry": {"lng": -75.086032, "lat": 40.181018}, "place": "Warminster Heights, Pennsylvania"}], "status": {"reason": "OK", "status": 200}}, "87": {"thanks": "Thanks from all of us at index.home.raft for using a what3words API", "blends": [{"country": "gb", "words": "coffee.brain.just", "rank": 1, "language": "en", "geometry": {"lng": -0.436467, "lat": 52.146089}, "place": "Bedford, Beds."}, {"country": "gb", "words": "coffee.brain.jobs", "rank": 2, "language": "en", "geometry": {"lng": -1.218237, "lat": 54.647572}, "place": "Greatham, Hartlepool"}, {"country": "us", "words": "coffee.brain.join", "rank": 3, "language": "en", "geometry": {"lng": -83.760954, "lat": 42.26799}, "place": "Ann Arbor, Michigan"}], "status": {"reason": "OK", "status": 200}}, "88": {"thanks": "Thanks from all of us at index.home.raft for using a what3words API", "blends": [{"country": "gb", "words": "coffee.brain.like", "rank": 1, "language": "en", "geometry": {"lng": -1.636705, "lat": 52.625526}, "place": "Tamworth, Staffs."}, {"country": "gb", "words": "coffee.brain.back", "rank": 2, "language": "en", "geometry": {"lng": -2.107995, "lat": 53.229962}, "place": "Macclesfield, Cheshire"}, {"country": "us", "words": "coffee.brain.take", "rank": 3, "language": "en", "geometry": {"lng": -101.470961, "lat": 36.67711}, "place": "Guymon, Oklahoma"}], "status": {"reason": "OK", "status": 200}}, "89": {"thanks": "Thanks from all of us at index.home.raft for using a what3words API", "blends": [{"country": "us", "words": "coffee.brain.also", "rank": 1, "language": "en", "geometry": {"lng": -95.831482, "lat": 36.051571}, "place": "Broken Arrow, Oklahoma"}, {"country": "us", "words": "coffee.brain.last", "rank": 2, "language": "en", "geometry": {"lng": -74.424121, "lat": 40.713306}, "place": "New Providence, New Jersey"}, {"country": "us", "words": "coffee.brain.help", "rank": 3, "language": "en", "geometry": {"lng": -111.886826, "lat": 40.89043}, "place": "Bountiful, Utah"}], "status": {"reason": "OK", "status": 200}}, "90": {"thanks": "Thanks from all of us at index.home.raft for using a what3words API", "blends": [{"country": "us", "words": "coffee.brain.from", "rank": 1, "language": "en", "geometry": {"lng": -77.355738, "lat": 39.471607}, "place": "Walkersville, Maryland"}, {"country": "us", "words": "coffee.brain.many", "rank": 2, "language": "en", "geometry": {"lng": -75.407655, "lat": 39.847146}, "place": "Village Green-Green Ridge, Pennsylvania"}, {"country": "us", "words": "coffee.brain.much", "rank": 3, "language": "en", "geometry": {"lng": -76.127303, "lat": 42.976593}, "place": "Nedrow, New York"}], "status": {"reason": "OK", "status": 200}}, "91": {"thanks": "Thanks from all of us at index.home.raft for using a what3words API", "blends": [{"country": "us", "words": "coffee.brain.into", "rank": 1, "language": "en", "geometry": {"lng": -86.146254, "lat": 39.701043}, "place": "Southport, Indiana"}, {"country": "us", "words": "coffee.brain.many", "rank": 2, "language": "en", "geometry": {"lng": -75.407655, "lat": 39.847146}, "place": "Village Green-Green Ridge, Pennsylvania"}, {"country": "zz", "words": "coffee.brain.even", "rank": 3, "language": "en", "geometry": {"lng": -74.061311, "lat": 40.567203}, "place": "Coney Island, New York"}], "status": {"reason": "OK", "status": 200}}, "92": {"thanks": "Thanks from all of us at index.home.raft for using a what3words API", "blends": [{"country": "us", "words": "coffee.brain.from", "rank": 1, "language": "en", "geometry": {"lng": -77.355738, "lat": 39.471607}, "place": "Walkersville, Maryland"}, {"country": "us", "words": "coffee.brain.also", "rank": 2, "language": "en", "geometry": {"lng": -95.831482, "lat": 36.051571}, "place": "Broken Arrow, Oklahoma"}, {"country": "us", "words": "coffee.brain.good", "rank": 3, "language": "en", "geometry": {"lng": -86.831011, "lat": 36.239341}, "place": "Nashville, Tennessee"}], "status": {"reason": "OK", "status": 200}}, "93": {"thanks": "Thanks from all of us at index.home.raft for using a what3words API", "blends": [{"country": "us", "words": "coffee.brain.deep", "rank": 1, "language": "en", "geometry": {"lng": -86.581229, "lat": 39.200504}, "place": "Ellettsville, Indiana"}, {"country": "us", "words": "coffee.brain.part", "rank": 2, "language": "en", "geometry": {"lng": -111.815428, "lat": 40.556557}, "place": "Granite, Utah"}, {"country": "us", "words": "coffee.brain.help", "rank": 3, "language": "en", "geometry": {"lng": -111.886826, "lat": 40.89043}, "place": "Bountiful, Utah"}], "status": {"reason": "OK", "status": 200}}, "94": {"thanks": "Thanks from all of us at index.home.raft for using a what3words API", "blends": [{"country": "us", "words": "coffee.brain.quit", "rank": 1, "language": "en", "geometry": {"lng": -88.277501, "lat": 40.161532}, "place": "Champaign, Illinois"}, {"country": "us", "words": "coffee.brain.quiz", "rank": 2, "language": "en", "geometry": {"lng": -86.514047, "lat": 39.766103}, "place": "Danville, Indiana"}, {"country": "us", "words": "coffee.brain.quad", "rank": 3, "language": "en", "geometry": {"lng": -80.764645, "lat": 34.296558}, "place": "Lugoff, South Carolina"}], "status": {"reason": "OK", "status": 200}}, "95": {"thanks": "Thanks from all of us at index.home.raft for using a what3words API", "blends": [{"country": "us", "words": "coffee.brain.from", "rank": 1, "language": "en", "geometry": {"lng": -77.355738, "lat": 39.471607}, "place": "Walkersville, Maryland"}, {"country": "gb", "words": "coffee.brain.over", "rank": 2, "language": "en", "geometry": {"lng": -0.362637, "lat": 53.667731}, "place": "Barrow upon Humber, Lincs."}, {"country": "us", "words": "coffee.brain.part", "rank": 3, "language": "en", "geometry": {"lng": -111.815428, "lat": 40.556557}, "place": "Granite, Utah"}], "status": {"reason": "OK", "status": 200}}, "96": {"thanks": "Thanks from all of us at index.home.raft for using a what3words API", "blends": [{"country": "us", "words": "coffee.brain.also", "rank": 1, "language": "en", "geometry": {"lng": -95.831482, "lat": 36.051571}, "place": "Broken Arrow, Oklahoma"}, {"country": "au", "words": "coffee.brain.case", "rank": 2, "language": "en", "geometry": {"lng": 144.640898, "lat": -37.872857}, "place": "Hoppers Crossing, Victoria"}, {"country": "au", "words": "coffee.brain.best", "rank": 3, "language": "en", "geometry": {"lng": 151.080427, "lat": -33.872318}, "place": "Homebush, New South Wales"}], "status": {"reason": "OK", "status": 200}}, "97": {"thanks": "Thanks from all of us at index.home.raft for using a what3words API", "blends": [{"country": "gb", "words": "coffee.brain.just", "rank": 1, "language": "en", "geometry": {"lng": -0.436467, "lat": 52.146089}, "place": "Bedford, Beds."}, {"country": "us", "words": "coffee.brain.into", "rank": 2, "language": "en", "geometry": {"lng": -86.146254, "lat": 39.701043}, "place": "Southport, Indiana"}, {"country": "us", "words": "coffee.brain.last", "rank": 3, "language": "en", "geometry": {"lng": -74.424121, "lat": 40.713306}, "place": "New Providence, New Jersey"}], "status": {"reason": "OK", "status": 200}}, "98": {"thanks": "Thanks from all of us at index.home.raft for using a what3words API", "blends": [{"country": "gb", "words": "coffee.brain.just", "rank": 1, "language": "en", "geometry": {"lng": -0.436467, "lat": 52.146089}, "place": "Bedford, Beds."}, {"country": "us", "words": "coffee.brain.much", "rank": 2, "language": "en", "geometry": {"lng": -76.127303, "lat": 42.976593}, "place": "Nedrow, New York"}, {"country": "us", "words": "coffee.brain.full", "rank": 3, "language": "en", "geometry": {"lng": -117.177717, "lat": 32.75376}, "place": "San Diego, California"}], "status": {"reason": "OK", "status": 200}}, "99": {"thanks": "Thanks from all of us at index.home.raft for using a what3words API", "blends": [{"country": "zz", "words": "coffee.brain.even", "rank": 1, "language": "en", "geometry": {"lng": -74.061311, "lat": 40.567203}, "place": "Coney Island, New York"}, {"country": "gb", "words": "coffee.brain.over", "rank": 2, "language": "en", "geometry": {"lng": -0.362637, "lat": 53.667731}, "place": "Barrow upon Humber, Lincs."}, {"country": "us", "words": "coffee.brain.give", "rank": 3, "language": "en", "geometry": {"lng": -98.10306, "lat": 37.657085}, "place": "Kingman, Kansas"}], "status": {"reason": "OK", "status": 200}}, "100": {"thanks": "Thanks from all of us at index.home.raft for using a what3words API", "blends": [{"country": "gb", "words": "coffee.brain.with", "rank": 1, "language": "en", "geometry": {"lng": -3.648329, "lat": 51.624987}, "place": "Maesteg, Bridgend"}, {"country": "us", "words": "coffee.brain.will", "rank": 2, "language": "en", "geometry": {"lng": -122.703766, "lat": 42.183848}, "place": "Ashland, Oregon"}, {"country": "us", "words": "coffee.brain.when", "rank": 3, "language": "en", "geometry": {"lng": -122.464113, "lat": 37.774997}, "place": "San Francisco, California"}], "status": {"reason": "OK", "status": 200}}, "101": {"thanks": "Thanks from all of us at index.home.raft for using a what3words API", "blends": [{"country": "us", "words": "coffee.brain.next", "rank": 1, "language": "en", "geometry": {"lng": -87.632041, "lat": 41.838845}, "place": "Chicago, Illinois"}, {"country": "us", "words": "coffee.brain.text", "rank": 2, "language": "en", "geometry": {"lng": -76.660464, "lat": 40.26516}, "place": "Hershey, Pennsylvania"}, {"country": "us", "words": "coffee.brain.exit", "rank": 3, "language": "en", "geometry": {"lng": -122.393059, "lat": 37.595933}, "place": "Millbrae, California"}], "status": {"reason": "OK", "status": 200}}, "102": {"thanks": "Thanks from all of us at index.home.raft for using a what3words API", "blends": [{"country": "us", "words": "coffee.brain.they", "rank": 1, "language": "en", "geometry": {"lng": -97.202256, "lat": 35.467699}, "place": "Harrah, Oklahoma"}, {"country": "us", "words": "coffee.brain.many", "rank": 2, "language": "en", "geometry": {"lng": -75.407655, "lat": 39.847146}, "place": "Village Green-Green Ridge, Pennsylvania"}, {"country": "us", "words": "coffee.brain.only", "rank": 3, "language": "en", "geometry": {"lng": -70.887174, "lat": 42.559387}, "place": "Beverly, Massachusetts"}], "status": {"reason": "OK", "status": 200}}, "103": {"thanks": "Thanks from all of us at index.home.raft for using a what3words API", "blends": [{"country": "gb", "words": "coffee.brain.zone", "rank": 1, "language": "en", "geometry": {"lng": -4.041772, "lat": 50.354557}, "place": "Yealmpton, Devon"}, {"country": "jm", "words": "coffee.brain.jazz", "rank": 2, "language": "en", "geometry": {"lng": -76.904172, "lat": 18.044483}, "place": "Spanish Town, Saint Catherine"}, {"country": "us", "words": "coffee.brain.lazy", "rank": 3, "language": "en", "geometry": {"lng": -112.47156, "lat": 34.885713}, "place": "Paulden, Arizona"}], "status": {"reason": "OK", "status": 200}}, "104": {"thanks": "Thanks from all of us at index.home.raft for using a what3words API", "blends": [{"country": "us", "words": "brain.brain.also", "rank": 1, "language": "en", "geometry": {"lng": -95.613284, "lat": 38.388839}, "place": "Burlington, Kansas"}, {"country": "au", "words": "brain.brain.back", "rank": 2, "language": "en", "geometry": {"lng": 115.883686, "lat": -31.891103}, "place": "Maylands, Western Australia"}, {"country": "us", "words": "brain.brain.each", "rank": 3, "language": "en", "geometry": {"lng": -83.468425, "lat": 41.706056}, "place": "Oregon, Ohio"}], "status": {"reason": "OK", "status": 200}}, "105": {"thanks": "Thanks from all of us at index.home.raft for using a what3words API", "blends": [{"country": "au", "words": "brain.brain.back", "rank": 1, "language": "en", "geometry": {"lng": 115.883686, "lat": -31.891103}, "place": "Maylands, Western Australia"}, {"country": "us", "words": "brain.brain.both", "rank": 2, "language": "en", "geometry": {"lng": -72.493043, "lat": 42.123262}, "place": "Ludlow, Massachusetts"}, {"country": "us", "words": "brain.brain.best", "rank": 3, "language": "en", "geometry": {"lng": -75.285244, "lat": 39.96495}, "place": "Drexel Hill, Pennsylvania"}], "status": {"reason": "OK", "status": 200}}, "106": {"thanks": "Thanks from all of us at index.home.raft for using a what3words API", "blends": [{"country": "au", "words": "brain.brain.back", "rank": 1, "language": "en", "geometry": {"lng": 115.883686, "lat": -31.891103}, "place": "Maylands, Western Australia"}, {"country": "us", "words": "brain.brain.much", "rank": 2, "language": "en", "geometry": {"lng": -122.303516, "lat": 48.438861}, "place": "Mount Vernon, Washington"}, {"country": "us", "words": "brain.brain.each", "rank": 3, "language": "en", "geometry": {"lng": -83.468425, "lat": 41.706056}, "place": "Oregon, Ohio"}], "status": {"reason": "OK", "status": 200}}, "107": {"thanks": "Thanks from all of us at index.home.raft for using a what3words API", "blends": [{"country": "us", "words": "brain.brain.deep", "rank": 1, "language": "en", "geometry": {"lng": -73.11818, "lat": 40.787772}, "place": "Bohemia, New York"}, {"country": "us", "words": "brain.brain.good", "rank": 2, "language": "en", "geometry": {"lng": -121.503397, "lat": 38.618276}, "place": "Sacramento, California"}, {"country": "us", "words": "brain.brain.down", "rank": 3, "language": "en", "geometry": {"lng": -82.739269, "lat": 41.455517}, "place": "Sandusky, Ohio"}], "status": {"reason": "OK", "status": 200}}, "108": {"thanks": "Thanks from all of us at index.home.raft for using a what3words API", "blends": [{"country": "us", "words": "brain.brain.deep", "rank": 1, "language": "en", "geometry": {"lng": -73.11818, "lat": 40.787772}, "place": "Bohemia, New York"}, {"country": "gb", "words": "brain.brain.even", "rank": 2, "language": "en", "geometry": {"lng": -2.060439, "lat": 52.529471}, "place": "Tipton, Sandwell"}, {"country": "us", "words": "brain.brain.each", "rank": 3, "language": "en", "geometry": {"lng": -83.468425, "lat": 41.706056}, "place": "Oregon, Ohio"}], "status": {"reason": "OK", "status": 200}}, "109": {"thanks": "Thanks from all of us at index.home.raft for using a what3words API", "blends": [{"country": "us", "words": "brain.brain.from", "rank": 1, "language": "en", "geometry": {"lng": -111.909692, "lat": 40.892208}, "place": "West Bountiful, Utah"}, {"country": "us", "words": "brain.brain.life", "rank": 2, "language": "en", "geometry": {"lng": -87.537179, "lat": 41.559953}, "place": "Lansing, Illinois"}, {"country": "gb", "words": "brain.brain.fact", "rank": 3, "language": "en", "geometry": {"lng": -3.99415, "lat": 51.668836}, "place": "Pontlliw, Swansea"}], "status": {"reason": "OK", "status": 200}}, "110": {"thanks": "Thanks from all of us at index.home.raft for using a what3words API", "blends": [{"country": "us", "words": "brain.brain.good", "rank": 1, "language": "en", "geometry": {"lng": -121.503397, "lat": 38.618276}, "place": "Sacramento, California"}, {"country": "us", "words": "brain.brain.give", "rank": 2, "language": "en", "geometry": {"lng": -76.834291, "lat": 39.28602}, "place": "Ellicott City, Maryland"}, {"country": "us", "words": "brain.brain.long", "rank": 3, "language": "en", "geometry": {"lng": -80.048106, "lat": 35.907651}, "place": "Thomasville, North Carolina"}], "status": {"reason": "OK", "status": 200}}, "111": {"thanks": "Thanks from all of us at index.home.raft for using a what3words API", "blends": [{"country": "us", "words": "brain.brain.than", "rank": 1, "language": "en", "geometry": {"lng": -122.611962, "lat": 45.375553}, "place": "West Linn, Oregon"}, {"country": "us", "words": "brain.brain.much", "rank": 2, "language": "en", "geometry": {"lng": -122.303516, "lat": 48.438861}, "place": "Mount Vernon, Washington"}, {"country": "us", "words": "brain.brain.such", "rank": 3, "language": "en", "geometry": {"lng": -95.107408, "lat": 38.952148}, "place": "Eudora, Kansas"}], "status": {"reason": "OK", "status": 200}}, "112": {"thanks": "Thanks from all of us at index.home.raft for using a what3words API", "blends": [{"country": "us", "words": "brain.brain.into", "rank": 1, "language": "en", "geometry": {"lng": -104.799631, "lat": 41.121645}, "place": "Fox Farm-College, Wyoming"}, {"country": "au", "words": "brain.brain.like", "rank": 2, "language": "en", "geometry": {"lng": 151.05961, "lat": -33.87054}, "place": "Homebush, New South Wales"}, {"country": "us", "words": "brain.brain.life", "rank": 3, "language": "en", "geometry": {"lng": -87.537179, "lat": 41.559953}, "place": "Lansing, Illinois"}], "status": {"reason": "OK", "status": 200}}, "113": {"thanks": "Thanks from all of us at index.home.raft for using a what3words API", "blends": [{"country": "au", "words": "brain.brain.just", "rank": 1, "language": "en", "geometry": {"lng": 138.633449, "lat": -35.058309}, "place": "Craigburn Farm, South Australia"}, {"country": "us", "words": "brain.brain.jobs", "rank": 2, "language": "en", "geometry": {"lng": -95.449705, "lat": 29.901507}, "place": "Hudson, Texas"}, {"country": "us", "words": "brain.brain.join", "rank": 3, "language": "en", "geometry": {"lng": -93.47682, "lat": 45.021925}, "place": "Plymouth, Minnesota"}], "status": {"reason": "OK", "status": 200}}, "114": {"thanks": "Thanks from all of us at index.home.raft for using a what3words API", "blends": [{"country": "au", "words": "brain.brain.like", "rank": 1, "language": "en", "geometry": {"lng": 151.05961, "lat": -33.87054}, "place": "Homebush, New South Wales"}, {"country": "au", "words": "brain.brain.back", "rank": 2, "language": "en", "geometry": {"lng": 115.883686, "lat": -31.891103}, "place": "Maylands, Western Australia"}, {"country": "us", "words": "brain.brain.take", "rank": 3, "language": "en", "geometry": {"lng": -90.7375, "lat": 38.764379}, "place": "Dardenne Prairie, Missouri"}], "status": {"reason": "OK", "status": 200}}, "115": {"thanks": "Thanks from all of us at index.home.raft for using a what3words API", "blends": [{"country": "us", "words": "brain.brain.also", "rank": 1, "language": "en", "geometry": {"lng": -95.613284, "lat": 38.388839}, "place": "Burlington, Kansas"}, {"country": "gb", "words": "brain.brain.last", "rank": 2, "language": "en", "geometry": {"lng": -4.116662, "lat": 55.842241}, "place": "Uddingston, S. Lanarkshire"}, {"country": "us", "words": "brain.brain.help", "rank": 3, "language": "en", "geometry": {"lng": -88.338706, "lat": 42.227698}, "place": "Lakewood, Illinois"}], "status": {"reason": "OK", "status": 200}}, "116": {"thanks": "Thanks from all of us at index.home.raft for using a what3words API", "blends": [{"country": "us", "words": "brain.brain.from", "rank": 1, "language": "en", "geometry": {"lng": -111.909692, "lat": 40.892208}, "place": "West Bountiful, Utah"}, {"country": "us", "words": "brain.brain.many", "rank": 2, "language": "en", "geometry": {"lng": -72.909902, "lat": 41.309414}, "place": "New Haven, Connecticut"}, {"country": "us", "words": "brain.brain.much", "rank": 3, "language": "en", "geometry": {"lng": -122.303516, "lat": 48.438861}, "place": "Mount Vernon, Washington"}], "status": {"reason": "OK", "status": 200}}, "117": {"thanks": "Thanks from all of us at index.home.raft for using a what3words API", "blends": [{"country": "us", "words": "brain.brain.into", "rank": 1, "language": "en", "geometry": {"lng": -104.799631, "lat": 41.121645}, "place": "Fox Farm-College, Wyoming"}, {"country": "us", "words": "brain.brain.many", "rank": 2, "language": "en", "geometry": {"lng": -72.909902, "lat": 41.309414}, "place": "New Haven, Connecticut"}, {"country": "gb", "words": "brain.brain.even", "rank": 3, "language": "en", "geometry": {"lng": -2.060439, "lat": 52.529471}, "place": "Tipton, Sandwell"}], "status": {"reason": "OK", "status": 200}}, "118": {"thanks": "Thanks from all of us at index.home.raft for using a what3words API", "blends": [{"country": "us", "words": "brain.brain.from", "rank": 1, "language": "en", "geometry": {"lng": -111.909692, "lat": 40.892208}, "place": "West Bountiful, Utah"}, {"country": "us", "words": "brain.brain.also", "rank": 2, "language": "en", "geometry": {"lng": -95.613284, "lat": 38.388839}, "place": "Burlington, Kansas"}, {"country": "us", "words": "brain.brain.good", "rank": 3, "language": "en", "geometry": {"lng": -121.503397, "lat": 38.618276}, "place": "Sacramento, California"}], "status": {"reason": "OK", "status": 200}}, "119": {"thanks": "Thanks from all of us at index.home.raft for using a what3words API", "blends": [{"country": "us", "words": "brain.brain.deep", "rank": 1, "language": "en", "geometry": {"lng": -73.11818, "lat": 40.787772}, "place": "Bohemia, New York"}, {"country": "us", "words": "brain.brain.part", "rank": 2, "language": "en", "geometry": {"lng": -90.242995, "lat": 41.852159}, "place": "Clinton, Iowa"}, {"country": "us", "words": "brain.brain.help", "rank": 3, "language": "en", "geometry": {"lng": -88.338706, "lat": 42.227698}, "place": "Lakewood, Illinois"}], "status": {"reason": "OK", "status": 200}}, "120": {"thanks": "Thanks from all of us at index.home.raft for using a what3words API", "blends": [{"country": "us", "words": "brain.brain.quit", "rank": 1, "language": "en", "geometry": {"lng": -83.635939, "lat": 41.582134}, "place": "Maumee, Ohio"}, {"country": "us", "words": "brain.brain.quiz", "rank": 2, "language": "en", "geometry": {"lng": -80.51601, "lat": 41.228372}, "place": "West Hill, Ohio"}, {"country": "au", "words": "brain.brain.quad", "rank": 3, "language": "en", "geometry": {"lng": 147.946616, "lat": -26.890969}, "place": "Roma, Queensland"}], "status": {"reason": "OK", "status": 200}}, "121": {"thanks": "Thanks from all of us at index.home.raft for using a what3words API", "blends": [{"country": "us", "words": "brain.brain.from", "rank": 1, "language": "en", "geometry": {"lng": -111.909692, "lat": 40.892208}, "place": "West Bountiful, Utah"}, {"country": "us", "words": "brain.brain.over", "rank": 2, "language": "en", "geometry": {"lng": -98.511739, "lat": 29.338333}, "place": "San Antonio, Texas"}, {"country": "us", "words": "brain.brain.part", "rank": 3, "language": "en", "geometry": {"lng": -90.242995, "lat": 41.852159}, "place": "Clinton, Iowa"}], "status": {"reason": "OK", "status": 200}}, "122": {"thanks": "Thanks from all of us at index.home.raft for using a what3words API", "blends": [{"country": "us", "words": "brain.brain.also", "rank": 1, "language": "en", "geometry": {"lng": -95.613284, "lat": 38.388839}, "place": "Burlington, Kansas"}, {"country": "us", "words": "brain.brain.case", "rank": 2, "language": "en", "geometry": {"lng": -118.347651, "lat": 34.131078}, "place": "Universal City, California"}, {"country": "us", "words": "brain.brain.best", "rank": 3, "language": "en", "geometry": {"lng": -75.285244, "lat": 39.96495}, "place": "Drexel Hill, Pennsylvania"}], "status": {"reason": "OK", "status": 200}}, "123": {"thanks": "Thanks from all of us at index.home.raft for using a what3words API", "blends": [{"country": "au", "words": "brain.brain.just", "rank": 1, "language": "en", "geometry": {"lng": 138.633449, "lat": -35.058309}, "place": "Craigburn Farm, South Australia"}, {"country": "us", "words": "brain.brain.into", "rank": 2, "language": "en", "geometry": {"lng": -104.799631, "lat": 41.121645}, "place": "Fox Farm-College, Wyoming"}, {"country": "gb", "words": "brain.brain.last", "rank": 3, "language": "en", "geometry": {"lng": -4.116662, "lat": 55.842241}, "place": "Uddingston, S. Lanarkshire"}], "status": {"reason": "OK", "status": 200}}, "124": {"thanks": "Thanks from all of us at index.home.raft for using a what3words API", "blends": [{"country": "au", "words": "brain.brain.just", "rank": 1, "language": "en", "geometry": {"lng": 138.633449, "lat": -35.058309}, "place": "Craigburn Farm, South Australia"}, {"country": "us", "words": "brain.brain.much", "rank": 2, "language": "en", "geometry": {"lng": -122.303516, "lat": 48.438861}, "place": "Mount Vernon, Washington"}, {"country": "us", "words": "brain.brain.full", "rank": 3, "language": "en", "geometry": {"lng": -87.88596, "lat": 41.924361}, "place": "Northlake, Illinois"}], "status": {"reason": "OK", "status": 200}}, "125": {"thanks": "Thanks from all of us at index.home.raft for using a what3words API", "blends": [{"country": "gb", "words": "brain.brain.even", "rank": 1, "language": "en", "geometry": {"lng": -2.060439, "lat": 52.529471}, "place": "Tipton, Sandwell"}, {"country": "us", "words": "brain.brain.over", "rank": 2, "language": "en", "geometry": {"lng": -98.511739, "lat": 29.338333}, "place": "San Antonio, Texas"}, {"country": "us", "words": "brain.brain.give", "rank": 3, "language": "en", "geometry": {"lng": -76.834291, "lat": 39.28602}, "place": "Ellicott City, Maryland"}], "status": {"reason": "OK", "status": 200}}, "126": {"thanks": "Thanks from all of us at index.home.raft for using a what3words API", "blends": [{"country": "au", "words": "brain.brain.with", "rank": 1, "language": "en", "geometry": {"lng": 145.285678, "lat": -37.829412}, "place": "Montrose, Victoria"}, {"country": "us", "words": "brain.brain.will", "rank": 2, "language": "en", "geometry": {"lng": -123.029281, "lat": 44.896116}, "place": "Four Corners, Oregon"}, {"country": "gb", "words": "brain.brain.when", "rank": 3, "language": "en", "geometry": {"lng": -0.660495, "lat": 51.487266}, "place": "Bray, Windsor"}], "status": {"reason": "OK", "status": 200}}, "127": {"thanks": "Thanks from all of us at index.home.raft for using a what3words API", "blends": [{"country": "us", "words": "brain.brain.next", "rank": 1, "language": "en", "geometry": {"lng": -106.537233, "lat": 35.094343}, "place": "Carnuel, New Mexico"}, {"country": "us", "words": "brain.brain.text", "rank": 2, "language": "en", "geometry": {"lng": -98.946493, "lat": 41.602428}, "place": "Ord, Nebraska"}, {"country": "us", "words": "brain.brain.exit", "rank": 3, "language": "en", "geometry": {"lng": -84.531415, "lat": 39.224868}, "place": "North College Hill, Ohio"}], "status": {"reason": "OK", "status": 200}}, "128": {"thanks": "Thanks from all of us at index.home.raft for using a what3words API", "blends": [{"country": "us", "words": "brain.brain.they", "rank": 1, "language": "en", "geometry": {"lng": -122.258248, "lat": 37.846634}, "place": "Emeryville, California"}, {"country": "us", "words": "brain.brain.many", "rank": 2, "language": "en", "geometry": {"lng": -72.909902, "lat": 41.309414}, "place": "New Haven, Connecticut"}, {"country": "us", "words": "brain.brain.only", "rank": 3, "language": "en", "geometry": {"lng": -117.00127, "lat": 46.396655}, "place": "Lewiston, Idaho"}], "status": {"reason": "OK", "status": 200}}, "129": {"thanks": "Thanks from all of us at index.home.raft for using a what3words API", "blends": [{"country": "gb", "words": "brain.brain.zone", "rank": 1, "language": "en", "geometry": {"lng": -1.458169, "lat": 55.025159}, "place": "North Shields, Tyneside"}, {"country": "us", "words": "brain.brain.jazz", "rank": 2, "language": "en", "geometry": {"lng": -111.905595, "lat": 33.465085}, "place": "Scottsdale, Arizona"}, {"country": "us", "words": "brain.brain.lazy", "rank": 3, "language": "en", "geometry": {"lng": -88.725294, "lat": 37.139648}, "place": "Metropolis, Illinois"}], "status": {"reason": "OK", "status": 200}}, "130": {"thanks": "Thanks from all of us at index.home.raft for using a what3words API", "blends": [{"country": "gb", "words": "brain.glue.also", "rank": 1, "language": "en", "geometry": {"lng": -0.095416, "lat": 53.536371}, "place": "Waltham, Lincs."}, {"country": "us", "words": "brain.blur.also", "rank": 2, "language": "en", "geometry": {"lng": -85.96662, "lat": 41.684711}, "place": "Elkhart, Indiana"}, {"country": "us", "words": "brain.glue.back", "rank": 3, "language": "en", "geometry": {"lng": -74.057477, "lat": 40.091324}, "place": "Point Pleasant Beach, New Jersey"}], "status": {"reason": "OK", "status": 200}}, "131": {"thanks": "Thanks from all of us at index.home.raft for using a what3words API", "blends": [{"country": "us", "words": "brain.glue.back", "rank": 1, "language": "en", "geometry": {"lng": -74.057477, "lat": 40.091324}, "place": "Point Pleasant Beach, New Jersey"}, {"country": "us", "words": "brain.blur.back", "rank": 2, "language": "en", "geometry": {"lng": -114.597195, "lat": 35.114664}, "place": "Bullhead City, Arizona"}, {"country": "gb", "words": "brain.glue.both", "rank": 3, "language": "en", "geometry": {"lng": -2.586251, "lat": 51.395793}, "place": "Whitchurch, Somerset"}], "status": {"reason": "OK", "status": 200}}, "132": {"thanks": "Thanks from all of us at index.home.raft for using a what3words API", "blends": [{"country": "us", "words": "brain.glue.back", "rank": 1, "language": "en", "geometry": {"lng": -74.057477, "lat": 40.091324}, "place": "Point Pleasant Beach, New Jersey"}, {"country": "us", "words": "brain.blur.back", "rank": 2, "language": "en", "geometry": {"lng": -114.597195, "lat": 35.114664}, "place": "Bullhead City, Arizona"}, {"country": "us", "words": "brain.glue.much", "rank": 3, "language": "en", "geometry": {"lng": -121.795339, "lat": 37.171289}, "place": "Morgan Hill, California"}], "status": {"reason": "OK", "status": 200}}, "133": {"thanks": "Thanks from all of us at index.home.raft for using a what3words API", "blends": [{"country": "us", "words": "brain.glue.deep", "rank": 1, "language": "en", "geometry": {"lng": -118.285619, "lat": 34.22697}, "place": "La Crescenta-Montrose, California"}, {"country": "us", "words": "brain.blur.deep", "rank": 2, "language": "en", "geometry": {"lng": -89.936854, "lat": 46.458643}, "place": "Wakefield, Michigan"}, {"country": "gb", "words": "brain.glue.good", "rank": 3, "language": "en", "geometry": {"lng": -0.376256, "lat": 53.807474}, "place": "Dunswell, Yorks."}], "status": {"reason": "OK", "status": 200}}, "134": {"thanks": "Thanks from all of us at index.home.raft for using a what3words API", "blends": [{"country": "us", "words": "brain.glue.deep", "rank": 1, "language": "en", "geometry": {"lng": -118.285619, "lat": 34.22697}, "place": "La Crescenta-Montrose, California"}, {"country": "us", "words": "brain.blur.deep", "rank": 2, "language": "en", "geometry": {"lng": -89.936854, "lat": 46.458643}, "place": "Wakefield, Michigan"}, {"country": "us", "words": "brain.glue.even", "rank": 3, "language": "en", "geometry": {"lng": -73.373178, "lat": 42.886899}, "place": "Hoosick Falls, New York"}], "status": {"reason": "OK", "status": 200}}, "135": {"thanks": "Thanks from all of us at index.home.raft for using a what3words API", "blends": [{"country": "us", "words": "brain.glue.from", "rank": 1, "language": "en", "geometry": {"lng": -76.509145, "lat": 39.331406}, "place": "Rosedale, Maryland"}, {"country": "zz", "words": "brain.blur.from", "rank": 2, "language": "en", "geometry": {"lng": -122.366838, "lat": 47.479746}, "place": "Burien, Washington"}, {"country": "us", "words": "brain.glue.life", "rank": 3, "language": "en", "geometry": {"lng": -87.506223, "lat": 41.665818}, "place": "Whiting, Indiana"}], "status": {"reason": "OK", "status": 200}}, "136": {"thanks": "Thanks from all of us at index.home.raft for using a what3words API", "blends": [{"country": "gb", "words": "brain.glue.good", "rank": 1, "language": "en", "geometry": {"lng": -0.376256, "lat": 53.807474}, "place": "Dunswell, Yorks."}, {"country": "us", "words": "brain.blur.good", "rank": 2, "language": "en", "geometry": {"lng": -71.408678, "lat": 41.914147}, "place": "Valley Falls, Rhode Island"}, {"country": "au", "words": "brain.glue.give", "rank": 3, "language": "en", "geometry": {"lng": 145.042876, "lat": -37.691448}, "place": "Greensborough, Victoria"}], "status": {"reason": "OK", "status": 200}}, "137": {"thanks": "Thanks from all of us at index.home.raft for using a what3words API", "blends": [{"country": "us", "words": "brain.glue.than", "rank": 1, "language": "en", "geometry": {"lng": -86.714627, "lat": 36.149647}, "place": "Nashville, Tennessee"}, {"country": "us", "words": "brain.blur.than", "rank": 2, "language": "en", "geometry": {"lng": -95.58338, "lat": 29.796424}, "place": "Bunker Hill Village, Texas"}, {"country": "us", "words": "brain.glue.much", "rank": 3, "language": "en", "geometry": {"lng": -121.795339, "lat": 37.171289}, "place": "Morgan Hill, California"}], "status": {"reason": "OK", "status": 200}}, "138": {"thanks": "Thanks from all of us at index.home.raft for using a what3words API", "blends": [{"country": "us", "words": "brain.glue.into", "rank": 1, "language": "en", "geometry": {"lng": -75.19069, "lat": 40.102509}, "place": "Flourtown, Pennsylvania"}, {"country": "us", "words": "brain.blur.into", "rank": 2, "language": "en", "geometry": {"lng": -122.458763, "lat": 48.709182}, "place": "Geneva, Washington"}, {"country": "us", "words": "brain.glue.like", "rank": 3, "language": "en", "geometry": {"lng": -105.072741, "lat": 39.903555}, "place": "Broomfield, Colorado"}], "status": {"reason": "OK", "status": 200}}, "139": {"thanks": "Thanks from all of us at index.home.raft for using a what3words API", "blends": [{"country": "us", "words": "brain.glue.just", "rank": 1, "language": "en", "geometry": {"lng": -86.015344, "lat": 39.757452}, "place": "Warren Park, Indiana"}, {"country": "gb", "words": "brain.blur.just", "rank": 2, "language": "en", "geometry": {"lng": -4.447064, "lat": 55.862562}, "place": "Inchinnan, Renfrewshire"}, {"country": "us", "words": "brain.glue.jobs", "rank": 3, "language": "en", "geometry": {"lng": -97.607039, "lat": 40.508934}, "place": "Geneva, Nebraska"}], "status": {"reason": "OK", "status": 200}}, "140": {"thanks": "Thanks from all of us at index.home.raft for using a what3words API", "blends": [{"country": "us", "words": "brain.glue.like", "rank": 1, "language": "en", "geometry": {"lng": -105.072741, "lat": 39.903555}, "place": "Broomfield, Colorado"}, {"country": "us", "words": "brain.blur.like", "rank": 2, "language": "en", "geometry": {"lng": -82.448689, "lat": 34.843561}, "place": "Parker, South Carolina"}, {"country": "us", "words": "brain.glue.back", "rank": 3, "language": "en", "geometry": {"lng": -74.057477, "lat": 40.091324}, "place": "Point Pleasant Beach, New Jersey"}], "status": {"reason": "OK", "status": 200}}, "141": {"thanks": "Thanks from all of us at index.home.raft for using a what3words API", "blends": [{"country": "gb", "words": "brain.glue.also", "rank": 1, "language": "en", "geometry": {"lng": -0.095416, "lat": 53.536371}, "place": "Waltham, Lincs."}, {"country": "us", "words": "brain.blur.also", "rank": 2, "language": "en", "geometry": {"lng": -85.96662, "lat": 41.684711}, "place": "Elkhart, Indiana"}, {"country": "us", "words": "brain.glue.last", "rank": 3, "language": "en", "geometry": {"lng": -76.11343, "lat": 43.074668}, "place": "Lyncourt, New York"}], "status": {"reason": "OK", "status": 200}}, "142": {"thanks": "Thanks from all of us at index.home.raft for using a what3words API", "blends": [{"country": "us", "words": "brain.glue.from", "rank": 1, "language": "en", "geometry": {"lng": -76.509145, "lat": 39.331406}, "place": "Rosedale, Maryland"}, {"country": "zz", "words": "brain.blur.from", "rank": 2, "language": "en", "geometry": {"lng": -122.366838, "lat": 47.479746}, "place": "Burien, Washington"}, {"country": "us", "words": "brain.glue.many", "rank": 3, "language": "en", "geometry": {"lng": -74.293141, "lat": 40.665279}, "place": "Cranford, New Jersey"}], "status": {"reason": "OK", "status": 200}}, "143": {"thanks": "Thanks from all of us at index.home.raft for using a what3words API", "blends": [{"country": "us", "words": "brain.glue.into", "rank": 1, "language": "en", "geometry": {"lng": -75.19069, "lat": 40.102509}, "place": "Flourtown, Pennsylvania"}, {"country": "us", "words": "brain.blur.into", "rank": 2, "language": "en", "geometry": {"lng": -122.458763, "lat": 48.709182}, "place": "Geneva, Washington"}, {"country": "us", "words": "brain.glue.many", "rank": 3, "language": "en", "geometry": {"lng": -74.293141, "lat": 40.665279}, "place": "Cranford, New Jersey"}], "status": {"reason": "OK", "status": 200}}, "144": {"thanks": "Thanks from all of us at index.home.raft for using a what3words API", "blends": [{"country": "us", "words": "brain.glue.from", "rank": 1, "language": "en", "geometry": {"lng": -76.509145, "lat": 39.331406}, "place": "Rosedale, Maryland"}, {"country": "zz", "words": "brain.blur.from", "rank": 2, "language": "en", "geometry": {"lng": -122.366838, "lat": 47.479746}, "place": "Burien, Washington"}, {"country": "gb", "words": "brain.glue.also", "rank": 3, "language": "en", "geometry": {"lng": -0.095416, "lat": 53.536371}, "place": "Waltham, Lincs."}], "status": {"reason": "OK", "status": 200}}, "145": {"thanks": "Thanks from all of us at index.home.raft for using a what3words API", "blends": [{"country": "us", "words": "brain.glue.deep", "rank": 1, "language": "en", "geometry": {"lng": -118.285619, "lat": 34.22697}, "place": "La Crescenta-Montrose, California"}, {"country": "us", "words": "brain.blur.deep", "rank": 2, "language": "en", "geometry": {"lng": -89.936854, "lat": 46.458643}, "place": "Wakefield, Michigan"}, {"country": "gb", "words": "brain.glue.part", "rank": 3, "language": "en", "geometry": {"lng": -0.237367, "lat": 51.208023}, "place": "Reigate, Surrey"}], "status": {"reason": "OK", "status": 200}}, "146": {"thanks": "Thanks from all of us at index.home.raft for using a what3words API", "blends": [{"country": "us", "words": "brain.glue.quit", "rank": 1, "language": "en", "geometry": {"lng": -74.065218, "lat": 41.062999}, "place": "Chestnut Ridge, New York"}, {"country": "gb", "words": "brain.blur.quit", "rank": 2, "language": "en", "geometry": {"lng": -3.050344, "lat": 51.669672}, "place": "Cwmbran, Torfaen"}, {"country": "zz", "words": "brain.glue.quiz", "rank": 3, "language": "en", "geometry": {"lng": -73.45995, "lat": 40.584236}, "place": "Seaford, New York"}], "status": {"reason": "OK", "status": 200}}, "147": {"thanks": "Thanks from all of us at index.home.raft for using a what3words API", "blends": [{"country": "us", "words": "brain.glue.from", "rank": 1, "language": "en", "geometry": {"lng": -76.509145, "lat": 39.331406}, "place": "Rosedale, Maryland"}, {"country": "zz", "words": "brain.blur.from", "rank": 2, "language": "en", "geometry": {"lng": -122.366838, "lat": 47.479746}, "place": "Burien, Washington"}, {"country": "us", "words": "brain.glue.over", "rank": 3, "language": "en", "geometry": {"lng": -80.179478, "lat": 40.279094}, "place": "Canonsburg, Pennsylvania"}], "status": {"reason": "OK", "status": 200}}, "148": {"thanks": "Thanks from all of us at index.home.raft for using a what3words API", "blends": [{"country": "gb", "words": "brain.glue.also", "rank": 1, "language": "en", "geometry": {"lng": -0.095416, "lat": 53.536371}, "place": "Waltham, Lincs."}, {"country": "us", "words": "brain.blur.also", "rank": 2, "language": "en", "geometry": {"lng": -85.96662, "lat": 41.684711}, "place": "Elkhart, Indiana"}, {"country": "us", "words": "brain.glue.case", "rank": 3, "language": "en", "geometry": {"lng": -93.298403, "lat": 41.030172}, "place": "Chariton, Iowa"}], "status": {"reason": "OK", "status": 200}}, "149": {"thanks": "Thanks from all of us at index.home.raft for using a what3words API", "blends": [{"country": "us", "words": "brain.glue.just", "rank": 1, "language": "en", "geometry": {"lng": -86.015344, "lat": 39.757452}, "place": "Warren Park, Indiana"}, {"country": "gb", "words": "brain.blur.just", "rank": 2, "language": "en", "geometry": {"lng": -4.447064, "lat": 55.862562}, "place": "Inchinnan, Renfrewshire"}, {"country": "us", "words": "brain.glue.into", "rank": 3, "language": "en", "geometry": {"lng": -75.19069, "lat": 40.102509}, "place": "Flourtown, Pennsylvania"}], "status": {"reason": "OK", "status": 200}}, "150": {"thanks": "Thanks from all of us at index.home.raft for using a what3words API", "blends": [{"country": "us", "words": "brain.glue.just", "rank": 1, "language": "en", "geometry": {"lng": -86.015344, "lat": 39.757452}, "place": "Warren Park, Indiana"}, {"country": "gb", "words": "brain.blur.just", "rank": 2, "language": "en", "geometry": {"lng": -4.447064, "lat": 55.862562}, "place": "Inchinnan, Renfrewshire"}, {"country": "us", "words": "brain.glue.much", "rank": 3, "language": "en", "geometry": {"lng": -121.795339, "lat": 37.171289}, "place": "Morgan Hill, California"}], "status": {"reason": "OK", "status": 200}}, "151": {"thanks": "Thanks from all of us at index.home.raft for using a what3words API", "blends": [{"country": "us", "words": "brain.glue.even", "rank": 1, "language": "en", "geometry": {"lng": -73.373178, "lat": 42.886899}, "place": "Hoosick Falls, New York"}, {"country": "us", "words": "brain.blur.even", "rank": 2, "language": "en", "geometry": {"lng": -84.559129, "lat": 39.118572}, "place": "Ludlow, Kentucky"}, {"country": "us", "words": "brain.glue.over", "rank": 3, "language": "en", "geometry": {"lng": -80.179478, "lat": 40.279094}, "place": "Canonsburg, Pennsylvania"}], "status": {"reason": "OK", "status": 200}}, "152": {"thanks": "Thanks from all of us at index.home.raft for using a what3words API", "blends": [{"country": "us", "words": "brain.glue.with", "rank": 1, "language": "en", "geometry": {"lng": -75.8012, "lat": 39.611349}, "place": "Elkton, Maryland"}, {"country": "gb", "words": "brain.blur.with", "rank": 2, "language": "en", "geometry": {"lng": -1.990393, "lat": 52.549792}, "place": "Wednesbury, Sandwell"}, {"country": "us", "words": "brain.glue.will", "rank": 3, "language": "en", "geometry": {"lng": -80.010941, "lat": 35.961877}, "place": "High Point, North Carolina"}], "status": {"reason": "OK", "status": 200}}, "153": {"thanks": "Thanks from all of us at index.home.raft for using a what3words API", "blends": [{"country": "us", "words": "brain.glue.next", "rank": 1, "language": "en", "geometry": {"lng": -124.114827, "lat": 43.991874}, "place": "Florence, Oregon"}, {"country": "us", "words": "brain.blur.next", "rank": 2, "language": "en", "geometry": {"lng": -90.231359, "lat": 39.723547}, "place": "Jacksonville, Illinois"}, {"country": "us", "words": "brain.glue.text", "rank": 3, "language": "en", "geometry": {"lng": -87.836896, "lat": 41.833293}, "place": "Riverside, Illinois"}], "status": {"reason": "OK", "status": 200}}, "154": {"thanks": "Thanks from all of us at index.home.raft for using a what3words API", "blends": [{"country": "gb", "words": "brain.glue.they", "rank": 1, "language": "en", "geometry": {"lng": -2.144219, "lat": 52.452498}, "place": "Stourbridge, Dudley"}, {"country": "us", "words": "brain.blur.they", "rank": 2, "language": "en", "geometry": {"lng": -87.694726, "lat": 41.434172}, "place": "Monee, Illinois"}, {"country": "us", "words": "brain.glue.many", "rank": 3, "language": "en", "geometry": {"lng": -74.293141, "lat": 40.665279}, "place": "Cranford, New Jersey"}], "status": {"reason": "OK", "status": 200}}, "155": {"thanks": "Thanks from all of us at index.home.raft for using a what3words API", "blends": [{"country": "us", "words": "brain.glue.zone", "rank": 1, "language": "en", "geometry": {"lng": -76.92777, "lat": 39.09092}, "place": "Burtonsville, Maryland"}, {"country": "gb", "words": "brain.blur.zone", "rank": 2, "language": "en", "geometry": {"lng": -0.695678, "lat": 51.44603}, "place": "Warfield, Bracknell Forest"}, {"country": "us", "words": "brain.glue.jazz", "rank": 3, "language": "en", "geometry": {"lng": -86.349626, "lat": 40.780846}, "place": "Logansport, Indiana"}], "status": {"reason": "OK", "status": 200}}, "156": {"thanks": "Thanks from all of us at index.home.raft for using a what3words API", "blends": [{"country": "us", "words": "farmer.coffee.also", "rank": 1, "language": "en", "geometry": {"lng": -73.644295, "lat": 43.302164}, "place": "Glens Falls, New York"}, {"country": "us", "words": "farmer.coffee.back", "rank": 2, "language": "en", "geometry": {"lng": -77.537945, "lat": 37.523784}, "place": "Bon Air, Virginia"}, {"country": "au", "words": "farmer.coffee.each", "rank": 3, "language": "en", "geometry": {"lng": 151.056885, "lat": -34.047286}, "place": "Loftus, New South Wales"}], "status": {"reason": "OK", "status": 200}}, "157": {"thanks": "Thanks from all of us at index.home.raft for using a what3words API", "blends": [{"country": "us", "words": "farmer.coffee.back", "rank": 1, "language": "en", "geometry": {"lng": -77.537945, "lat": 37.523784}, "place": "Bon Air, Virginia"}, {"country": "au", "words": "farmer.coffee.both", "rank": 2, "language": "en", "geometry": {"lng": 153.073623, "lat": -27.463414}, "place": "Fortitude Valley, Queensland"}, {"country": "us", "words": "farmer.coffee.best", "rank": 3, "language": "en", "geometry": {"lng": -94.691906, "lat": 39.004838}, "place": "Merriam, Kansas"}], "status": {"reason": "OK", "status": 200}}, "158": {"thanks": "Thanks from all of us at index.home.raft for using a what3words API", "blends": [{"country": "us", "words": "farmer.coffee.back", "rank": 1, "language": "en", "geometry": {"lng": -77.537945, "lat": 37.523784}, "place": "Bon Air, Virginia"}, {"country": "gb", "words": "farmer.coffee.much", "rank": 2, "language": "en", "geometry": {"lng": 0.347157, "lat": 51.435519}, "place": "Gravesend, Kent"}, {"country": "au", "words": "farmer.coffee.each", "rank": 3, "language": "en", "geometry": {"lng": 151.056885, "lat": -34.047286}, "place": "Loftus, New South Wales"}], "status": {"reason": "OK", "status": 200}},